     2.10           OBSERVATION DATA    G (GPS)             RINEX VERSION / TYPE
goGPS                                                       PGM / RUN BY / DATE 
SciBLDG_VRS3_master                                         MARKER NAME         
                                                            OBSERVER / AGENCY   
                                                            REC # / TYPE / VERS 
                                                            ANT # / TYPE        
 -3749535.4041  3683516.9954  3600859.2492                  APPROX POSITION XYZ 
        0.0000        0.0000        0.0000                  ANTENNA: DELTA H/E/N
     1     1                                                WAVELENGTH FACT L1/2
     6    C1    P2    L1    L2    S1    S2                  # / TYPES OF OBSERV 
     1.000                                                  INTERVAL            
  2013    10    21     5    22   33.0000000     GPS         TIME OF FIRST OBS   
                                                            END OF HEADER       
 13 10 21  5 22 33.0000000  0  7G01G04G13G17G20G23G28
  24541652.918 6  24541668.658 3 128967256.258 6 100493966.626 3        38.000 6
        21.000 3
  21110942.640 8  21110953.020 6 110938752.277 8  86445780.735 6        49.000 8
        41.000 6
  22755460.750 7  22755473.310 4 119580753.784 7  93179807.277 4        45.000 7
        29.000 4
  20233311.986 9  20233320.986 8 106326771.928 9  82852029.777 8        54.000 9
        50.000 8
  22208890.572 7  22208899.532 5 116708507.687 7  90941694.756 5        47.000 7
        34.000 5
  22419542.392 8  22419551.152 6 117815490.081 8  91804277.821 6        48.000 8
        36.000 6
  23317191.666 6  23317218.666 3 122532669.506 6  95480002.470 3        38.000 6
        20.000 3
 13 10 21  5 22 34.0000000  0  7G01G04G13G17G20G23G28
  24542124.818 6  24542140.398 3 128969734.924 6 100495898.048 3        38.000 6
        21.000 3
  21110668.340 8  21110678.740 6 110937312.074 8  86444658.505 6        49.000 8
        40.000 6
  22754957.970 7  22754970.370 4 119578110.036 7  93177747.220 4        45.000 7
        29.000 4
  20233282.506 9  20233291.966 8 106326616.870 9  82851908.951 8        54.000 9
        50.000 8
  22209437.672 7  22209446.472 5 116711382.835 7  90943935.135 5        46.000 7
        34.000 5
  22419388.552 8  22419397.332 6 117814680.979 8  91803647.356 6        48.000 8
        36.000 6
  23317806.386 6  23317833.406 3 122535898.349 6  95482518.425 3        38.000 6
        21.000 3
 13 10 21  5 22 35.0000000  0  7G01G04G13G17G20G23G28
  24542596.578 6  24542611.818 3 128972212.768 6 100497828.841 3        38.000 6
        22.000 3
  21110394.240 8  21110404.720 6 110935871.233 8  86443535.766 6        49.000 8
        40.000 6
  22754454.530 7  22754467.330 4 119575465.699 7  93175686.706 4        45.000 7
        29.000 4
  20233252.966 9  20233262.106 8 106326461.448 9  82851787.846 8        54.000 9
        50.000 8
  22209984.452 7  22209993.852 5 116714257.384 7  90946175.039 5        46.000 7
        34.000 5
  22419234.812 8  22419243.372 5 117813871.556 8  91803016.635 5        48.000 8
        35.000 5
  23318420.866 6  23318447.786 3 122539126.425 6  95485033.779 3        38.000 6
        21.000 3
 13 10 21  5 22 36.0000000  0  7G01G04G13G17G20G23G28
  24543067.978 6  24543083.278 3 128974690.178 6 100499759.303 3        38.000 6
        21.000 3
  21110119.840 8  21110130.420 6 110934430.092 8  86442412.807 6        49.000 8
        40.000 6
  22753951.830 7  22753963.710 5 119572821.197 7  93173626.061 5        45.000 7
        30.000 5
  20233223.326 9  20233232.426 8 106326306.106 9  82851666.795 8        54.000 9
        50.000 8
  22210531.732 7  22210540.812 5 116717131.610 7  90948414.698 5        46.000 7
        34.000 5
  22419080.752 8  22419089.532 6 117813062.170 8  91802385.947 6        48.000 8
        36.000 6
  23319034.626 6  23319061.686 3 122542354.147 6  95487548.850 3        39.000 6
        21.000 3
 13 10 21  5 22 37.0000000  0  7G01G04G13G17G20G23G28
  24543539.438 6  24543555.158 3 128977168.248 6 100501690.279 3        38.000 6
        22.000 3
  21109846.020 8  21109856.480 6 110932989.842 8  86441290.534 6        48.000 8
        40.000 6
  22753448.230 7  22753460.930 5 119570177.652 7  93171566.168 5        46.000 7
        30.000 5
  20233193.866 9  20233202.946 8 106326151.963 9  82851546.685 8        54.000 9
        50.000 8
  22211079.392 7  22211087.892 5 116720006.721 7  90950655.042 5        46.000 7
        35.000 5
  22418926.852 8  22418935.732 6 117812253.996 8  91801756.207 6        48.000 8
        36.000 6
  23319649.406 6  23319676.346 3 122545582.604 6  95490064.492 3        39.000 6
        21.000 3
 13 10 21  5 22 38.0000000  0  7G01G04G13G17G20G23G28
  24544011.178 6  24544026.578 3 128979646.551 6 100503621.437 3        39.000 6
        21.000 3
  21109571.860 8  21109582.680 6 110931550.007 8  86440168.587 6        48.000 8
        40.000 6
  22752945.090 7  22752957.810 5 119567534.661 7  93169506.698 5        46.000 7
        30.000 5
  20233165.106 9  20233174.146 8 106325998.571 9  82851427.163 8        54.000 9
        50.000 8
  22211626.172 7  22211634.612 5 116722882.287 7  90952895.739 5        46.000 7
        34.000 5
  22418773.372 8  22418782.132 6 117811446.557 8  91801127.042 6        48.000 8
        36.000 6
  23320263.586 6  23320290.546 3 122548811.382 6  95492580.376 3        38.000 6
        21.000 3
 13 10 21  5 22 39.0000000  0  7G01G04G13G17G20G23G28
  24544482.858 6  24544498.138 3 128982124.724 6 100505552.476 3        39.000 6
        21.000 3
  21109297.760 8  21109308.620 6 110930110.224 8  86439046.688 6        48.000 8
        40.000 6
  22752442.630 7  22752454.950 5 119564891.803 7  93167447.339 5        45.000 7
        30.000 5
  20233135.766 9  20233144.806 8 106325845.534 9  82851307.913 8        54.000 9
        50.000 8
  22212173.132 7  22212182.012 5 116725757.908 7  90955136.483 5        46.000 7
        34.000 5
  22418619.712 8  22418628.092 6 117810639.515 8  91800498.172 6        49.000 8
        36.000 6
  23320878.006 6  23320904.706 3 122552040.115 6  95495096.237 3        38.000 6
        20.000 3
 13 10 21  5 22 40.0000000  0  7G01G04G13G17G20G23G28
  24544955.098 6  24544969.858 3 128984605.271 6 100507485.368 3        39.000 6
        22.000 3
  21109024.560 8  21109035.200 6 110928672.993 8  86437926.766 6        48.000 8
        40.000 6
  22751939.330 7  22751952.550 5 119562251.610 7  93165390.044 5        45.000 7
        30.000 5
  20233106.886 9  20233116.326 8 106325695.392 9  82851190.914 8        55.000 9
        50.000 8
  22212720.892 7  22212729.692 5 116728636.080 7  90957379.214 5        46.000 7
        34.000 5
  22418466.672 8  22418475.492 6 117809835.345 8  91799871.554 6        48.000 8
        36.000 6
  23321493.306 6  23321519.826 3 122555271.337 6  95497614.033 3        39.000 6
        21.000 3
 13 10 21  5 22 41.0000000  0  7G01G04G13G17G20G23G28
  24545426.638 6  24545441.758 3 128987083.551 6 100509416.491 3        40.000 6
        22.000 3
  21108750.320 8  21108761.340 6 110927233.684 8  86436805.230 6        48.000 8
        40.000 6
  22751436.890 7  22751449.750 4 119559609.426 7  93163331.214 4        45.000 7
        29.000 4
  20233078.246 9  20233087.326 8 106325543.493 9  82851072.555 8        55.000 9
        50.000 8
  22213268.132 7  22213277.492 5 116731512.193 7  90959620.341 5        46.000 7
        34.000 5
  22418313.132 8  22418321.952 6 117809029.427 8  91799243.564 6        48.000 8
        36.000 6
  23322107.826 6  23322133.906 3 122558500.312 6  95500130.091 3        39.000 6
        20.000 3
 13 10 21  5 22 42.0000000  0  7G01G04G13G17G20G23G28
  24545897.558 6  24545913.058 3 128989561.957 6 100511347.713 3        39.000 6
        22.000 3
  21108476.580 8  21108487.220 6 110925794.731 8  86435683.967 6        49.000 8
        40.000 6
  22750934.270 7  22750946.850 5 119556967.704 7  93161272.739 5        45.000 7
        30.000 5
  20233049.486 9  20233058.826 8 106325392.274 9  82850954.722 8        55.000 9
        50.000 8
  22213815.212 7  22213824.452 5 116734388.652 7  90961861.734 5        46.000 7
        34.000 5
  22418160.012 8  22418168.732 6 117808224.188 8  91798616.109 6        49.000 8
        36.000 6
  23322722.006 6  23322748.826 3 122561729.578 6  95502646.357 3        39.000 6
        20.000 3
 13 10 21  5 22 43.0000000  0  7G01G04G13G17G20G23G28
  24546369.018 6  24546384.138 3 128992038.306 6 100513277.333 3        39.000 6
        21.000 3
  21108202.660 8  21108213.040 6 110924353.877 8  86434561.227 6        49.000 8
        40.000 6
  22750431.430 7  22750443.590 5 119554324.158 7  93159212.848 5        45.000 7
        30.000 5
  20233020.346 9  20233029.746 8 106325239.481 9  82850835.660 8        54.000 9
        50.000 8
  22214362.972 7  22214371.812 5 116737263.207 7  90964101.652 5        46.000 7
        34.000 5
  22418006.192 8  22418015.152 5 117807417.390 8  91797987.437 5        49.000 8
        35.000 5
  23323336.546 6  23323362.986 3 122564956.801 6  95505161.037 3        39.000 6
        20.000 3
 13 10 21  5 22 44.0000000  0  7G01G04G13G17G20G23G28
  24546840.638 6  24546855.118 3 128994515.235 6 100515207.398 3        39.000 6
        22.000 3
  21107928.660 8  21107939.300 6 110922913.713 8  86433439.020 6        49.000 8
        40.000 6
  22749928.550 7  22749941.070 5 119551681.417 7  93157153.577 5        45.000 7
        30.000 5
  20232991.646 9  20233000.606 8 106325087.689 9  82850717.385 8        54.000 9
        50.000 8
  22214909.732 7  22214918.412 5 116740138.468 7  90966342.111 5        46.000 7
        34.000 5
  22417853.272 8  22417861.632 5 117806611.606 8  91797359.554 5        49.000 8
        35.000 5
  23323950.366 6  23323977.046 3 122568184.659 6  95507676.212 3        40.000 6
        19.000 3
 13 10 21  5 22 45.0000000  0  7G01G04G13G17G20G23G28
  24547312.358 6  24547327.278 3 128996995.210 6 100517139.860 3        39.000 6
        22.000 3
  21107655.440 8  21107666.160 6 110921476.847 8  86432319.394 6        49.000 8
        40.000 6
  22749425.930 7  22749438.770 5 119549042.080 7  93155096.959 5        45.000 7
        30.000 5
  20232963.566 9  20232972.646 8 106324939.545 9  82850601.946 8        55.000 9
        50.000 8
  22215457.472 7  22215466.392 5 116743017.060 7  90968585.173 5        46.000 7
        34.000 5
  22417700.372 8  22417709.192 6 117805809.433 8  91796734.490 6        48.000 8
        36.000 6
  23324565.566 6  23324591.546 3 122571415.691 6  95510193.867 3        40.000 6
        19.000 3
 13 10 21  5 22 46.0000000  0  7G01G04G13G17G20G23G28
  24547783.758 6  24547798.838 3 128999472.965 6 100519070.584 3        39.000 6
        23.000 3
  21107381.280 8  21107392.100 6 110920037.966 8  86431198.196 6        50.000 8
        40.000 6
  22748923.190 7  22748935.930 5 119546400.800 7  93153038.825 5        45.000 7
        30.000 5
  20232935.086 9  20232944.166 8 106324789.697 9  82850485.184 8        55.000 9
        50.000 8
  22216005.092 7  22216013.652 5 116745893.614 7  90970826.643 5        46.000 7
        34.000 5
  22417547.392 8  22417556.032 5 117805005.578 8  91796108.114 5        48.000 8
        35.000 5
  23325180.366 6  23325206.166 3 122574644.595 6  95512709.853 3        40.000 6
        19.000 3
 13 10 21  5 22 47.0000000  0  7G01G04G13G17G20G23G28
  24548255.438 6  24548270.538 3 129001951.216 6 100521001.684 3        39.000 6
        22.000 3
  21107107.560 8  21107118.180 6 110918599.757 8  86430077.514 6        50.000 8
        40.000 6
  22748421.150 7  22748433.930 5 119543760.307 7  93150981.302 5        45.000 7
        30.000 5
  20232906.686 9  20232915.586 8 106324640.859 9  82850369.208 8        55.000 9
        50.000 8
  22216552.652 7  22216561.572 5 116748770.859 7  90973068.650 5        46.000 7
        34.000 5
  22417394.592 8  22417403.332 5 117804202.698 8  91795482.495 5        48.000 8
        35.000 5
  23325795.006 6  23325820.806 3 122577874.059 6  95515226.281 3        39.000 6
        21.000 3
 13 10 21  5 22 48.0000000  0  7G01G04G13G17G20G23G28
  24548726.838 6  24548742.078 3 129004429.701 6 100522932.965 3        38.000 6
        22.000 3
  21106834.180 8  21106844.800 6 110917161.967 8  86428957.164 6        50.000 8
        40.000 6
  22747919.110 7  22747931.450 4 119541120.332 7  93148924.189 4        45.000 7
        29.000 4
  20232878.406 9  20232887.306 8 106324492.751 9  82850253.793 8        55.000 9
        50.000 8
  22217100.532 7  22217108.892 5 116751648.504 7  90975310.967 5        47.000 7
        34.000 5
  22417241.972 8  22417251.272 6 117803400.590 8  91794857.480 6        49.000 8
        36.000 6
  23326409.066 6  23326435.566 3 122581103.859 6  95517742.970 3        39.000 6
        20.000 3
 13 10 21  5 22 49.0000000  0  7G01G04G13G17G20G23G28
  24549198.978 6  24549214.058 3 129006910.750 6 100524866.248 3        38.000 6
        22.000 3
  21106560.940 8  21106571.780 6 110915726.922 8  86427838.949 6        50.000 8
        40.000 6
  22747417.050 7  22747429.350 5 119538483.182 7  93146869.275 5        44.000 7
        30.000 5
  20232850.706 9  20232860.306 8 106324347.720 9  82850140.779 8        54.000 9
        50.000 8
  22217648.352 7  22217657.092 5 116754528.925 7  90977555.449 5        46.000 7
        34.000 5
  22417089.712 8  22417098.812 6 117802601.562 8  91794234.863 6        48.000 8
        36.000 6
  23327024.726 6  23327050.466 3 122584336.255 6  95520261.685 3        39.000 6
        21.000 3
 13 10 21  5 22 50.0000000  0  7G01G04G13G17G20G23G28
  24549670.098 6  24549685.398 3 129009387.898 6 100526796.493 3        39.000 6
        22.000 3
  21106287.080 8  21106297.780 6 110914288.161 8  86426717.839 6        50.000 8
        40.000 6
  22746914.650 7  22746926.810 5 119535842.459 7  93144811.568 5        44.000 7
        31.000 5
  20232822.266 8  20232831.246 8 106324199.323 8  82850025.154 8        53.000 8
        50.000 8
  22218195.492 7  22218204.892 5 116757405.639 7  90979797.048 5        46.000 7
        34.000 5
  22416937.372 8  22416946.032 6 117801799.142 8  91793609.604 6        48.000 8
        36.000 6
  23327639.286 6  23327665.306 3 122587564.854 6  95522777.440 3        39.000 6
        20.000 3
 13 10 21  5 22 51.0000000  0  7G01G04G13G17G20G23G28
  24550142.598 6  24550157.078 3 129011865.762 6 100528727.295 3        39.000 6
        22.000 3
  21106013.700 8  21106024.120 6 110912850.278 8  86425597.415 6        50.000 8
        40.000 6
  22746412.110 7  22746424.370 5 119533202.686 7  93142754.615 5        45.000 7
        30.000 5
  20232794.226 9  20232803.326 8 106324052.093 9  82849910.423 8        54.000 9
        50.000 8
  22218743.472 7  22218751.792 5 116760283.207 7  90982039.311 5        46.000 7
        34.000 5
  22416784.832 8  22416793.732 6 117800997.917 8  91792985.271 6        49.000 8
        36.000 6
  23328253.306 6  23328280.006 3 122590794.228 6  95525293.799 3        39.000 6
        19.000 3
 13 10 21  5 22 52.0000000  0  7G01G04G13G17G20G23G28
  24550614.318 6  24550628.838 3 129014344.442 6 100530658.752 3        39.000 6
        22.000 3
  21105740.080 8  21105751.120 6 110911413.404 8  86424477.771 6        50.000 8
        41.000 6
  22745909.790 7  22745922.230 5 119530564.033 7  93140698.528 5        44.000 7
        30.000 5
  20232766.886 9  20232775.946 8 106323906.223 9  82849796.758 8        54.000 9
        50.000 8
  22219291.432 7  22219299.492 5 116763161.832 7  90984282.393 5        47.000 7
        34.000 5
  22416632.472 8  22416641.332 6 117800198.051 8  91792362.003 6        49.000 8
        36.000 6
  23328868.766 6  23328894.646 3 122594024.538 6  95527810.880 3        39.000 6
        20.000 3
 13 10 21  5 22 53.0000000  0  7G01G04G13G17G20G23G28
  24551085.878 6  24551100.538 3 129016825.002 6 100532591.681 3        39.000 6
        22.000 3
  21105467.160 8  21105477.980 6 110909978.625 8  86423359.763 6        50.000 8
        40.000 6
  22745408.510 7  22745421.070 5 119527927.563 7  93138644.150 5        45.000 7
        30.000 5
  20232738.986 9  20232748.166 8 106323762.750 9  82849684.963 8        55.000 9
        50.000 8
  22219839.352 7  22219847.892 5 116766042.521 7  90986527.084 5        47.000 7
        33.000 5
  22416480.812 8  22416489.652 6 117799400.568 8  91791740.600 6        49.000 8
        36.000 6
  23329483.126 6  23329509.886 3 122597256.792 6  95530329.481 3        40.000 6
        19.000 3
 13 10 21  5 22 54.0000000  0  7G01G04G13G17G20G23G28
  24551557.218 6  24551572.398 3 129019303.769 6 100534523.173 3        39.000 6
        22.000 3
  21105193.940 8  21105204.380 6 110908542.206 8  86422240.477 6        49.000 8
        40.000 6
  22744905.890 7  22744918.890 4 119525289.559 7  93136588.567 4        44.000 7
        29.000 4
  20232711.886 9  20232721.386 8 106323617.969 9  82849572.144 8        55.000 9
        50.000 8
  22220387.392 7  22220395.812 5 116768921.566 7  90988770.498 5        46.000 7
        34.000 5
  22416328.732 8  22416337.432 6 117798601.774 8  91791118.165 6        49.000 8
        36.000 6
  23330098.226 6  23330124.526 3 122600487.299 6  95532846.720 3        40.000 6
        21.000 3
 13 10 21  5 22 55.0000000  0  7G01G04G13G17G20G23G28
  24552028.758 6  24552043.498 3 129021778.536 6 100536451.566 3        39.000 6
        21.000 3
  21104919.960 8  21104930.100 6 110907102.000 8  86421118.241 6        49.000 8
        40.000 6
  22744403.670 7  22744416.010 5 119522647.861 7  93134530.117 5        44.000 7
        30.000 5
  20232683.606 9  20232692.626 8 106323469.743 9  82849456.641 8        55.000 9
        50.000 8
  22220934.552 7  22220942.772 5 116771796.864 7  90991010.990 5        46.000 7
        34.000 5
  22416176.112 8  22416184.552 6 117797799.545 8  91790493.056 6        48.000 8
        36.000 6
  23330712.546 6  23330738.646 3 122603713.949 6  95535360.949 3        40.000 6
        20.000 3
 13 10 21  5 22 56.0000000  0  7G01G04G13G17G20G23G28
  24552500.578 6  24552515.438 3 129024258.878 6 100538384.283 3        39.000 6
        22.000 3
  21104646.980 8  21104657.240 6 110905667.572 8  86420000.513 6        48.000 8
        40.000 6
  22743902.010 7  22743914.370 4 119520012.048 7  93132476.247 4        44.000 7
        29.000 4
  20232656.666 9  20232665.886 8 106323327.602 9  82849345.886 8        55.000 9
        50.000 8
  22221482.572 7  22221490.852 5 116774677.913 7  90993255.953 5        47.000 7
        34.000 5
  22416024.532 8  22416033.172 6 117797003.407 8  91789872.685 6        48.000 8
        36.000 6
  23331327.106 6  23331353.126 3 122606946.234 6  95537879.583 3        40.000 6
        20.000 3
 13 10 21  5 22 57.0000000  0  7G01G04G13G17G20G23G28
  24552971.418 6  24552987.278 3 129026737.705 6 100540315.832 3        38.000 6
        22.000 3
  21104373.420 8  21104383.920 6 110904231.736 8  86418881.678 6        48.000 8
        39.000 6
  22743399.990 7  22743412.530 5 119517374.900 7  93130421.337 5        44.000 7
        30.000 5
  20232629.346 9  20232638.466 8 106323184.378 9  82849234.280 8        55.000 9
        50.000 8
  22222030.852 7  22222039.192 5 116777557.597 7  90995499.868 5        47.000 7
        34.000 5
  22415872.932 8  22415881.152 6 117796206.187 8  91789251.480 6        48.000 8
        36.000 6
  23331942.446 6  23331968.166 3 122610177.035 6  95540397.049 3        39.000 6
        21.000 3
 13 10 21  5 22 58.0000000  0  7G01G04G13G17G20G23G28
  24553443.498 6  24553459.098 3 129029216.980 6 100542247.733 3        38.000 6
        21.000 3
  21104100.660 8  21104111.040 6 110902796.623 8  86417763.412 6        49.000 8
        40.000 6
  22742898.310 7  22742910.710 5 119514738.615 7  93128367.096 5        44.000 7
        30.000 5
  20232602.286 9  20232611.486 8 106323042.230 9  82849123.519 8        55.000 9
        50.000 8
  22222578.612 7  22222587.572 5 116780437.997 7  90997744.342 5        47.000 7
        34.000 5
  22415721.672 8  22415729.932 6 117795410.044 8  91788631.111 6        48.000 8
        36.000 6
  23332557.566 6  23332583.266 3 122613408.449 6  95542915.007 3        40.000 6
        20.000 3
 13 10 21  5 22 59.0000000  0  7G01G04G13G17G20G23G28
  24553915.838 6  24553930.638 3 129031696.682 6 100544179.974 3        39.000 6
        22.000 3
  21103827.540 8  21103838.060 6 110901362.085 8  86416645.596 6        49.000 8
        40.000 6
  22742396.610 7  22742409.050 5 119512102.975 7  93126313.360 5        44.000 7
        30.000 5
  20232575.186 9  20232584.386 8 106322900.951 9  82849013.425 8        55.000 9
        50.000 8
  22223127.212 7  22223135.452 5 116783318.960 7  90999989.242 5        47.000 7
        34.000 5
  22415569.912 8  22415578.452 5 117794614.776 8  91788011.423 5        48.000 8
        35.000 5
  23333172.126 6  23333198.326 3 122616640.332 6  95545433.304 3        39.000 6
        20.000 3
 13 10 21  5 23  0.0000000  0  7G01G04G13G17G20G23G28
  24554387.338 6  24554402.878 3 129034174.820 6 100546110.995 3        38.000 6
        21.000 3
  21103554.420 8  21103564.720 6 110899926.149 8  86415526.685 6        49.000 8
        40.000 6
  22741894.670 7  22741907.250 5 119509466.038 7  93124258.607 5        44.000 7
        30.000 5
  20232548.386 9  20232557.386 8 106322758.600 9  82848902.508 8        55.000 9
        50.000 8
  22223674.672 7  22223683.512 5 116786198.538 7  91002233.071 5        47.000 7
        33.000 5
  22415418.452 8  22415426.972 5 117793818.446 8  91787390.909 5        48.000 8
        35.000 5
  23333787.046 6  23333812.846 3 122619870.671 6  95547950.406 3        39.000 6
        21.000 3
 13 10 21  5 23  1.0000000  0  7G01G04G13G17G20G23G28
  24554859.198 6  24554874.178 3 129036652.222 6 100548041.446 3        38.000 6
        22.000 3
  21103281.080 8  21103290.960 6 110898489.680 8  86414407.359 6        49.000 8
        40.000 6
  22741392.990 7  22741405.470 5 119506828.675 7  93122203.536 5        44.000 7
        30.000 5
  20232521.186 9  20232530.486 8 106322616.052 9  82848791.430 8        55.000 9
        50.000 8
  22224223.172 7  22224231.212 5 116789077.583 7  91004476.487 5        47.000 7
        33.000 5
  22415267.192 8  22415275.412 5 117793021.909 8  91786770.232 5        48.000 8
        34.000 5
  23334401.626 6  23334428.226 3 122623100.400 6  95550467.050 3        39.000 6
        20.000 3
 13 10 21  5 23  2.0000000  0  7G01G04G13G17G20G23G28
  24555331.238 6  24555346.138 3 129039133.684 6 100549975.067 3        38.000 6
        22.000 3
  21103008.500 8  21103018.720 6 110897057.438 8  86413291.330 6        49.000 8
        40.000 6
  22740892.070 7  22740904.470 5 119504195.613 7  93120151.803 5        44.000 7
        30.000 5
  20232494.546 9  20232504.126 8 106322478.033 9  82848683.887 8        55.000 9
        50.000 8
  22224771.172 7  22224779.832 5 116791960.848 7  91006723.187 5        47.000 7
        33.000 5
  22415116.492 8  22415124.732 5 117792229.904 8  91786153.096 5        48.000 8
        35.000 5
  23335017.426 6  23335042.986 3 122626334.212 6  95552986.860 3        39.000 6
        21.000 3
 13 10 21  5 23  3.0000000  0  7G01G04G13G17G20G23G28
  24555802.518 6  24555817.798 3 129041611.491 6 100551905.818 3        38.000 6
        22.000 3
  21102735.620 8  21102745.740 6 110895621.792 8  86412172.653 6        49.000 8
        41.000 6
  22740390.010 7  22740402.710 5 119501559.267 7  93118097.526 5        44.000 7
        30.000 5
  20232468.146 9  20232477.426 8 106322336.946 9  82848573.945 8        55.000 9
        50.000 8
  22225319.492 7  22225327.932 5 116794840.717 7  91008967.233 5        47.000 7
        34.000 5
  22414965.232 8  22414973.452 5 117791434.848 8  91785533.579 5        48.000 8
        35.000 5
  23335631.666 6  23335658.346 3 122629564.558 6  95555503.977 3        39.000 6
        19.000 3
 13 10 21  5 23  4.0000000  0  7G01G04G13G17G20G23G28
  24556274.478 6  24556289.158 3 129044091.277 6 100553838.133 3        38.000 6
        22.000 3
  21102462.600 8  21102473.040 6 110894188.284 8  86411055.634 6        50.000 8
        41.000 6
  22739888.810 7  22739901.630 5 119498925.138 7  93116044.964 5        44.000 7
        30.000 5
  20232442.006 9  20232451.126 8 106322198.334 9  82848465.940 8        55.000 9
        50.000 8
  22225867.792 7  22225876.612 5 116797722.718 7  91011212.948 5        46.000 7
        35.000 5
  22414814.072 8  22414822.492 5 117790642.234 8  91784915.955 5        48.000 8
        35.000 5
  23336247.226 6  23336273.366 3 122632796.918 6  95558022.655 3        39.000 6
        21.000 3
 13 10 21  5 23  5.0000000  0  7G01G04G13G17G20G23G28
  24556745.398 6  24556761.078 3 129046569.856 6 100555769.479 3        38.000 6
        21.000 3
  21102189.660 8  21102199.960 6 110892753.698 8  86409937.771 6        49.000 8
        41.000 6
  22739387.670 7  22739400.070 5 119496290.061 7  93113991.664 5        44.000 7
        30.000 5
  20232415.206 9  20232424.166 8 106322058.965 9  82848357.338 8        54.000 9
        50.000 8
  22226416.472 7  22226425.272 5 116800603.668 7  91013457.850 5        47.000 7
        34.000 5
  22414662.912 8  22414671.432 5 117789848.897 8  91784297.770 5        48.000 8
        35.000 5
  23336861.646 6  23336888.366 3 122636028.076 6  95560540.412 3        39.000 6
        21.000 3
 13 10 21  5 23  6.0000000  0  7G01G04G13G17G20G23G28
  24557217.758 6  24557233.218 3 129049050.057 6 100557702.101 3        38.000 6
        22.000 3
  21101917.200 8  21101927.420 6 110891321.034 8  86408821.413 6        49.000 8
        41.000 6
  22738886.510 7  22738899.230 5 119493657.002 7  93111939.937 5        44.000 7
        31.000 5
  20232389.026 9  20232398.346 8 106321921.838 9  82848250.488 8        54.000 9
        50.000 8
  22226964.692 7  22226973.192 5 116803486.530 7  91015704.236 5        47.000 7
        34.000 5
  22414512.532 8  22414520.872 5 117789057.796 8  91783681.332 5        48.000 8
        35.000 5
  23337476.446 6  23337503.486 3 122639261.068 6  95563059.574 3        39.000 6
        20.000 3
 13 10 21  5 23  7.0000000  0  7G01G04G13G17G20G23G28
  24557689.638 6  24557704.358 3 129051528.479 6 100559633.343 3        38.000 6
        22.000 3
  21101643.920 8  21101654.340 6 110889886.693 8  86407703.749 6        49.000 8
        41.000 6
  22738385.110 7  22738397.650 5 119491022.377 7  93109886.993 5        44.000 7
        31.000 5
  20232362.646 9  20232371.666 8 106321783.376 9  82848142.597 8        54.000 9
        50.000 8
  22227512.972 7  22227521.752 5 116806367.737 7  91017949.335 5        47.000 7
        34.000 5
  22414362.152 8  22414370.272 5 117788265.361 8  91783063.856 5        48.000 8
        35.000 5
  23338091.746 6  23338118.106 3 122642492.266 6  95565577.359 3        40.000 6
        20.000 3
 13 10 21  5 23  8.0000000  0  7G01G04G13G17G20G23G28
  24558161.458 6  24558176.298 3 129054006.078 6 100561563.938 3        38.000 6
        21.000 3
  21101371.020 8  21101381.360 6 110888451.737 8  86406585.603 6        49.000 8
        41.000 6
  22737883.830 7  22737896.150 5 119488387.210 7  93107833.625 5        44.000 7
        30.000 5
  20232336.446 9  20232345.366 8 106321644.608 9  82848034.463 8        54.000 9
        50.000 8
  22228060.972 7  22228069.452 5 116809248.296 7  91020193.919 5        47.000 7
        34.000 5
  22414211.332 8  22414219.652 6 117787472.620 8  91782446.138 6        49.000 8
        36.000 6
  23338706.766 6  23338732.766 3 122645722.742 6  95568094.574 3        40.000 6
        21.000 3
 13 10 21  5 23  9.0000000  0  7G01G04G13G17G20G23G28
  24558633.518 6  24558648.138 3 129056487.104 6 100563497.192 3        38.000 6
        21.000 3
  21101098.580 8  21101108.840 6 110887020.394 8  86405470.273 6        49.000 8
        40.000 6
  22737382.970 7  22737395.590 5 119485755.785 7  93105783.176 5        44.000 7
        30.000 5
  20232310.606 9  20232319.946 8 106321509.788 9  82847929.408 8        54.000 9
        50.000 8
  22228610.152 7  22228618.712 5 116812132.503 7  91022441.354 5        47.000 7
        34.000 5
  22414060.992 8  22414069.052 6 117786683.844 8  91781831.506 6        49.000 8
        36.000 6
  23339321.466 6  23339348.366 3 122648956.740 6  95570614.520 3        39.000 6
        21.000 3
 13 10 21  5 23 10.0000000  0  7G01G04G13G17G20G23G28
  24559104.758 6  24559119.998 3 129058966.942 6 100565429.538 3        38.000 6
        22.000 3
  21100825.880 8  21100836.280 6 110885588.027 8  86404354.147 6        49.000 8
        40.000 6
  22736882.170 7  22736894.930 5 119483123.425 7  93103731.997 5        44.000 7
        30.000 5
  20232284.806 9  20232293.986 8 106321374.279 9  82847823.819 8        54.000 9
        50.000 8
  22229158.492 7  22229167.292 5 116815015.676 7  91024687.980 5        46.000 7
        33.000 5
  22413910.912 8  22413919.032 6 117785894.359 8  91781216.331 6        49.000 8
        36.000 6
  23339937.106 6  23339963.786 3 122652189.591 6  95573133.589 3        39.000 6
        20.000 3
 13 10 21  5 23 11.0000000  0  7G01G04G13G17G20G23G28
  24559577.278 6  24559591.858 3 129061446.617 6 100567361.756 3        38.000 6
        22.000 3
  21100553.420 8  21100563.840 6 110884155.693 8  86403238.045 6        49.000 8
        40.000 6
  22736381.090 7  22736393.850 5 119480491.188 7  93101680.909 5        44.000 7
        31.000 5
  20232259.286 9  20232268.286 8 106321239.125 9  82847718.504 8        55.000 9
        50.000 8
  22229707.052 7  22229715.932 5 116817898.870 7  91026934.624 5        47.000 7
        33.000 5
  22413760.492 8  22413769.052 6 117785105.224 8  91780601.420 6        49.000 8
        36.000 6
  23340552.046 6  23340578.986 3 122655422.386 6  95575652.618 3        39.000 6
        20.000 3
 13 10 21  5 23 12.0000000  0  7G01G04G13G17G20G23G28
  24560049.338 6  24560063.558 3 129063925.081 6 100569293.023 3        38.000 6
        21.000 3
  21100280.520 8  21100291.040 6 110882722.317 8  86402121.126 6        50.000 8
        41.000 6
  22735880.010 7  22735892.670 5 119477858.032 7  93099629.111 5        44.000 7
        30.000 5
  20232233.426 9  20232242.186 8 106321103.245 9  82847612.621 8        55.000 9
        50.000 8
  22230255.292 7  22230264.492 5 116820781.065 7  91029180.489 5        46.000 7
        33.000 5
  22413610.372 8  22413618.952 6 117784315.395 8  91779985.977 6        50.000 8
        36.000 6
  23341167.986 6  23341193.686 3 122658653.999 6  95578170.727 3        39.000 6
        20.000 3
 13 10 21  5 23 13.0000000  0  7G01G04G13G17G20G23G28
  24560520.518 6  24560535.478 3 129066404.557 6 100571225.079 3        37.000 6
        21.000 3
  21100008.140 8  21100018.220 6 110881290.193 8  86401005.190 6        50.000 8
        41.000 6
  22735379.530 7  22735391.630 5 119475226.210 7  93097578.349 5        44.000 7
        31.000 5
  20232207.606 9  20232216.466 8 106320968.961 9  82847507.986 8        55.000 9
        50.000 8
  22230804.152 7  22230813.472 5 116823664.521 7  91031427.334 5        46.000 7
        33.000 5
  22413460.332 8  22413468.892 6 117783527.139 8  91779371.752 6        49.000 8
        36.000 6
  23341782.126 6  23341809.066 3 122661886.787 6  95580689.745 3        39.000 6
        20.000 3
 13 10 21  5 23 14.0000000  0  7G01G04G13G17G20G23G28
  24560991.778 6  24561006.898 3 129068883.152 6 100573156.450 3        38.000 6
        21.000 3
  21099735.200 8  21099745.680 6 110879857.290 8  86399888.642 6        50.000 8
        41.000 6
  22734878.470 7  22734890.930 5 119472593.753 7  93095527.094 5        44.000 7
        31.000 5
  20232182.326 9  20232191.006 8 106320834.229 9  82847403.003 8        55.000 9
        50.000 8
  22231353.032 7  22231362.092 5 116826547.187 7  91033673.560 5        46.000 7
        34.000 5
  22413310.232 8  22413318.612 5 117782738.464 8  91778757.201 5        49.000 8
        35.000 5
  23342397.526 6  23342423.846 3 122665118.652 6  95583208.057 3        40.000 6
        19.000 3
 13 10 21  5 23 15.0000000  0  7G01G04G13G17G20G23G28
  24561464.058 6  24561479.658 3 129071363.602 6 100575089.287 3        37.000 6
        21.000 3
  21099463.200 8  21099473.800 6 110878426.443 8  86398773.698 6        50.000 8
        40.000 6
  22734377.730 7  22734390.250 5 119469963.468 7  93093477.528 5        45.000 7
        30.000 5
  20232156.826 9  20232165.626 8 106320701.887 9  82847299.881 8        55.000 9
        50.000 8
  22231901.732 7  22231910.832 5 116829431.915 7  91035921.400 5        46.000 7
        34.000 5
  22413160.792 8  22413169.072 5 117781952.158 8  91778144.498 5        48.000 8
        35.000 5
  23343013.166 6  23343039.046 3 122668352.548 6  95585727.938 3        39.000 6
        20.000 3
 13 10 21  5 23 16.0000000  0  7G01G04G13G17G20G23G28
  24561936.738 6  24561951.358 3 129073843.979 6 100577022.056 3        38.000 6
        21.000 3
  21099190.620 8  21099201.200 6 110876995.720 8  86397658.856 6        50.000 8
        41.000 6
  22733877.390 7  22733890.070 5 119467333.373 7  93091428.105 5        44.000 7
        30.000 5
  20232131.786 9  20232140.846 8 106320569.964 9  82847197.082 8        54.000 9
        50.000 8
  22232450.832 7  22232459.712 5 116832316.745 7  91038169.318 5        46.000 7
        34.000 5
  22413011.012 8  22413019.552 5 117781166.288 8  91777532.138 5        49.000 8
        35.000 5
  23343628.106 6  23343654.786 3 122671586.379 6  95588247.757 3        39.000 6
        19.000 3
 13 10 21  5 23 17.0000000  0  7G01G04G13G17G20G23G28
  24562408.058 6  24562422.918 3 129076321.605 6 100578952.670 3        39.000 6
        22.000 3
  21098918.040 8  21098928.620 6 110875562.452 8  86396542.019 6        51.000 8
        40.000 6
  22733376.670 7  22733389.170 5 119464700.834 7  93089376.786 5        45.000 7
        30.000 5
  20232106.426 9  20232115.126 8 106320435.837 9  82847092.567 8        54.000 9
        50.000 8
  22232999.472 7  22233008.532 5 116835199.051 7  91040415.269 5        46.000 7
        33.000 5
  22412861.252 8  22412869.572 5 117780378.207 8  91776918.048 5        49.000 8
        35.000 5
  23344243.266 6  23344269.606 3 122674817.590 6  95590765.540 3        39.000 6
        20.000 3
 13 10 21  5 23 18.0000000  0  7G01G04G13G17G20G23G28
  24562880.458 6  24562894.898 3 129078801.120 6 100580884.763 3        39.000 6
        22.000 3
  21098645.880 8  21098656.180 6 110874131.245 8  86395426.797 6        51.000 8
        40.000 6
  22732876.130 7  22732888.690 5 119462070.455 7  93087327.154 5        45.000 7
        31.000 5
  20232081.346 9  20232090.206 8 106320304.107 9  82846989.922 8        54.000 9
        50.000 8
  22233548.292 7  22233557.052 5 116838083.435 7  91042662.836 5        46.000 7
        33.000 5
  22412711.592 8  22412719.912 5 117779592.531 8  91776305.836 5        49.000 8
        35.000 5
  23344858.126 6  23344884.746 3 122678050.732 6  95593284.831 3        39.000 6
        20.000 3
 13 10 21  5 23 19.0000000  0  7G01G04G13G17G20G23G28
  24563351.838 6  24563366.758 3 129081282.750 6 100582818.505 3        38.000 6
        22.000 3
  21098373.720 8  21098383.940 6 110872702.372 8  86394313.391 6        50.000 8
        40.000 6
  22732375.630 7  22732388.650 5 119459442.499 7  93085279.402 5        44.000 7
        31.000 5
  20232056.766 9  20232065.766 8 106320175.025 9  82846889.337 8        54.000 9
        50.000 8
  22234097.672 7  22234106.432 5 116840970.128 7  91044912.206 5        46.000 7
        34.000 5
  22412562.292 8  22412571.092 5 117778809.492 8  91775695.679 5        49.000 8
        35.000 5
  23345473.906 6  23345500.466 3 122681286.126 6  95595805.892 3        39.000 6
        19.000 3
 13 10 21  5 23 20.0000000  0  7G01G04G13G17G20G23G28
  24563823.838 6  24563838.338 3 129083760.728 6 100584749.391 3        39.000 6
        22.000 3
  21098101.140 8  21098111.720 6 110871269.994 8  86393197.255 6        50.000 8
        40.000 6
  22731875.310 7  22731887.910 5 119456811.187 7  93083229.038 5        44.000 7
        31.000 5
  20232031.626 9  20232040.326 8 106320042.776 9  82846786.288 8        54.000 9
        50.000 8
  22234646.632 7  22234654.912 5 116843853.340 7  91047158.869 5        46.000 7
        34.000 5
  22412412.872 8  22412421.272 5 117778023.296 8  91775083.061 5        49.000 8
        35.000 5
  23346088.486 6  23346115.606 3 122684517.904 6  95598324.133 3        39.000 6
        19.000 3
 13 10 21  5 23 21.0000000  0  7G01G04G13G17G20G23G28
  24564295.998 6  24564310.818 3 129086241.743 6 100586682.654 3        39.000 6
        22.000 3
  21097829.140 8  21097839.860 6 110869840.835 8  86392083.634 6        49.000 8
        40.000 6
  22731375.170 7  22731387.730 5 119454183.170 7  93081181.238 5        44.000 7
        31.000 5
  20232007.066 9  20232015.966 8 106319914.086 9  82846686.012 8        54.000 9
        50.000 8
  22235195.512 7  22235204.392 5 116846739.779 7  91049408.046 5        47.000 7
        33.000 5
  22412263.912 8  22412272.232 5 117777240.640 8  91774473.202 5        49.000 8
        35.000 5
  23346704.566 6  23346731.186 3 122687752.804 6  95600844.787 3        39.000 6
        19.000 3
 13 10 21  5 23 22.0000000  0  7G01G04G13G17G20G23G28
  24564767.018 6  24564782.718 3 129088720.832 6 100588614.405 3        38.000 6
        22.000 3
  21097557.140 8  21097567.440 6 110868409.988 8  86390968.685 6        50.000 8
        40.000 6
  22730874.870 7  22730887.370 5 119451553.587 7  93079132.221 5        45.000 7
        31.000 5
  20231982.486 9  20231991.426 8 106319784.016 9  82846584.657 8        55.000 9
        50.000 8
  22235744.212 7  22235753.372 5 116849624.515 7  91051655.894 5        47.000 7
        34.000 5
  22412114.952 8  22412123.452 5 117776456.634 8  91773862.287 5        49.000 8
        35.000 5
  23347319.706 6  23347346.486 3 122690985.870 6  95603364.024 3        39.000 6
        19.000 3
 13 10 21  5 23 23.0000000  0  7G01G04G13G17G20G23G28
  24565238.778 6  24565254.178 3 129091201.506 6 100590547.381 3        39.000 6
        22.000 3
  21097284.740 8  21097295.420 6 110866980.884 8  86389855.099 6        50.000 8
        41.000 6
  22730374.590 7  22730387.390 5 119448925.796 7  93077084.600 5        45.000 7
        32.000 5
  20231958.006 9  20231967.146 8 106319656.008 9  82846484.904 8        54.000 9
        50.000 8
  22236293.972 7  22236302.332 5 116852510.998 7  91053905.093 5        47.000 7
        33.000 5
  22411966.132 8  22411974.332 5 117775674.677 8  91773252.972 5        49.000 8
        35.000 5
  23347935.106 6  23347962.166 3 122694220.584 6  95605884.511 3        39.000 6
        19.000 3
 13 10 21  5 23 24.0000000  0  7G01G04G13G17G20G23G28
  24565710.818 6  24565725.978 3 129093679.597 6 100592478.349 3        38.000 6
        21.000 3
  21097012.660 8  21097023.400 6 110865549.341 8  86388739.614 6        50.000 8
        41.000 6
  22729874.430 7  22729887.110 5 119446295.711 7  93075035.187 5        45.000 7
        31.000 5
  20231933.286 9  20231942.006 8 106319525.910 9  82846383.535 8        54.000 9
        50.000 8
  22236842.792 7  22236851.412 5 116855395.030 7  91056152.391 5        47.000 7
        34.000 5
  22411816.912 8  22411825.232 6 117774890.620 8  91772642.025 6        49.000 8
        36.000 6
  23348550.726 6  23348577.566 3 122697452.741 6  95608403.027 3        39.000 6
        19.000 3
 13 10 21  5 23 25.0000000  0  7G01G04G13G17G20G23G28
  24566183.338 6  24566198.698 3 129096161.689 6 100594412.459 3        39.000 6
        22.000 3
  21096741.100 8  21096751.780 6 110864122.013 8  86387627.410 6        50.000 8
        41.000 6
  22729374.630 7  22729387.310 5 119443669.920 7  93072989.124 5        45.000 7
        31.000 5
  20231909.326 9  20231918.206 8 106319400.330 9  82846285.677 8        54.000 9
        50.000 8
  22237392.112 7  22237400.912 5 116858283.302 7  91058402.995 5        46.000 7
        33.000 5
  22411668.072 8  22411677.152 6 117774111.125 8  91772034.628 6        49.000 8
        36.000 6
  23349166.286 6  23349193.086 3 122700689.028 6  95610924.769 3        39.000 6
        19.000 3
 13 10 21  5 23 26.0000000  0  7G01G04G13G17G20G23G28
  24566655.118 6  24566670.278 3 129098640.066 6 100596343.670 3        38.000 6
        22.000 3
  21096468.640 8  21096479.300 6 110862691.162 8  86386512.469 6        50.000 8
        40.000 6
  22728874.470 7  22728886.850 5 119441040.731 7  93070940.411 5        45.000 7
        31.000 5
  20231884.866 9  20231893.746 8 106319271.576 9  82846185.349 8        54.000 9
        50.000 8
  22237941.492 7  22237949.852 5 116861168.049 7  91060650.849 5        47.000 7
        34.000 5
  22411519.352 8  22411528.112 6 117773328.429 8  91771424.740 6        49.000 8
        36.000 6
  23349781.206 6  23349808.666 3 122703921.647 6  95613443.685 3        38.000 6
        20.000 3
 13 10 21  5 23 27.0000000  0  7G01G04G13G17G20G23G28
  24567127.098 6  24567142.338 3 129101120.921 6 100598276.802 3        39.000 6
        22.000 3
  21096197.100 8  21096207.860 6 110861262.998 8  86385399.614 6        49.000 8
        40.000 6
  22728374.170 7  22728387.110 5 119438414.303 7  93068893.859 5        45.000 7
        32.000 5
  20231860.686 9  20231869.906 8 106319145.808 9  82846087.347 8        54.000 9
        50.000 8
  22238490.872 7  22238498.992 5 116864055.470 7  91062900.794 5        46.000 7
        34.000 5
  22411371.272 8  22411379.552 6 117772548.713 8  91770817.167 6        49.000 8
        36.000 6
  23350397.046 6  23350424.566 3 122707156.873 6  95615964.621 3        39.000 6
        19.000 3
 13 10 21  5 23 28.0000000  0  7G01G04G13G17G20G23G28
  24567599.218 6  24567614.618 3 129103601.537 6 100600209.762 3        38.000 6
        22.000 3
  21095925.060 8  21095935.980 6 110859834.753 8  86384286.702 6        49.000 8
        41.000 6
  22727874.510 7  22727887.190 5 119435787.894 7  93066847.313 5        45.000 7
        31.000 5
  20231837.006 9  20231846.166 8 106319020.283 9  82845989.540 8        54.000 9
        50.000 8
  22239039.672 7  22239048.572 5 116866942.805 7  91065150.663 5        46.000 7
        34.000 5
  22411222.792 8  22411230.932 6 117771769.255 8  91770209.801 6        49.000 8
        36.000 6
  23351013.286 6  23351040.186 3 122710391.886 6  95618485.355 3        39.000 6
        19.000 3
 13 10 21  5 23 29.0000000  0  7G01G04G13G17G20G23G28
  24568071.018 6  24568086.198 3 129106081.270 6 100602142.017 3        38.000 6
        22.000 3
  21095653.120 8  21095664.240 6 110858405.791 8  86383173.227 6        49.000 8
        40.000 6
  22727374.810 7  22727387.630 5 119433160.918 7  93064800.330 5        45.000 7
        31.000 5
  20231812.706 9  20231821.646 8 106318894.378 9  82845891.432 8        54.000 9
        50.000 8
  22239589.392 7  22239597.912 5 116869829.472 7  91067400.016 5        46.000 7
        34.000 5
  22411074.492 8  22411082.532 6 117770989.437 8  91769602.160 6        49.000 8
        36.000 6
  23351628.586 6  23351655.386 3 122713626.066 6  95621005.481 3        39.000 6
        19.000 3
 13 10 21  5 23 30.0000000  0  7G01G04G13G17G20G23G28
  24568542.618 6  24568558.298 3 129108561.203 6 100604074.416 3        38.000 6
        23.000 3
  21095381.220 8  21095391.920 6 110856977.283 8  86382060.102 6        49.000 8
        40.000 6
  22726875.010 7  22726887.830 5 119430534.449 7  93062753.739 5        45.000 7
        31.000 5
  20231789.366 9  20231798.266 8 106318769.263 9  82845793.940 8        54.000 9
        50.000 8
  22240137.872 7  22240147.212 5 116872716.562 7  91069649.695 5        46.000 7
        34.000 5
  22410926.252 8  22410934.372 6 117770210.375 8  91768995.102 6        49.000 8
        36.000 6
  23352244.586 6  23352271.606 3 122716860.619 6  95623525.859 3        38.000 6
        19.000 3
 13 10 21  5 23 31.0000000  0  7G01G04G13G17G20G23G28
  24569014.358 6  24569030.098 3 129111041.982 6 100606007.488 3        37.000 6
        22.000 3
  21095109.680 8  21095120.380 6 110855549.763 8  86380947.757 6        49.000 8
        41.000 6
  22726375.070 7  22726388.150 5 119427909.083 7  93060708.010 5        45.000 7
        32.000 5
  20231765.786 9  20231774.586 8 106318645.452 9  82845697.456 8        54.000 9
        50.000 8
  22240687.692 7  22240696.832 5 116875604.638 7  91071900.137 5        46.000 7
        34.000 5
  22410778.052 8  22410786.292 6 117769432.640 8  91768389.076 6        49.000 8
        36.000 6
  23352859.066 6  23352886.906 3 122720096.042 6  95626046.905 3        38.000 6
        20.000 3
 13 10 21  5 23 32.0000000  0  7G01G04G13G17G20G23G28
  24569485.538 6  24569501.898 3 129113519.778 6 100607938.249 3        38.000 6
        21.000 3
  21094837.720 8  21094848.180 6 110854119.455 8  86379833.227 6        49.000 8
        41.000 6
  22725875.210 7  22725887.990 5 119425281.055 7  93058660.204 5        45.000 7
        31.000 5
  20231741.606 9  20231750.586 8 106318519.200 9  82845599.080 8        55.000 9
        50.000 8
  22241237.852 7  22241246.052 5 116878489.938 7  91074148.422 5        47.000 7
        34.000 5
  22410629.872 8  22410638.132 5 117768652.462 8  91767781.143 5        49.000 8
        35.000 5
  23353474.846 6  23353502.026 3 122723328.564 6  95628565.712 3        38.000 6
        20.000 3
 13 10 21  5 23 33.0000000  0  7G01G04G13G17G20G23G28
  24569958.118 6  24569973.878 3 129116001.400 6 100609871.983 3        37.000 6
        20.000 3
  21094566.200 8  21094576.600 6 110852693.073 8  86378721.763 6        49.000 8
        40.000 6
  22725376.190 7  22725388.630 5 119422657.027 7  93056615.511 5        45.000 7
        31.000 5
  20231718.186 9  20231727.346 8 106318397.183 9  82845504.004 8        55.000 9
        50.000 8
  22241786.932 7  22241795.452 5 116881379.157 7  91076399.763 5        47.000 7
        34.000 5
  22410481.872 8  22410490.372 6 117767876.519 8  91767176.519 6        50.000 8
        36.000 6
  23354090.626 6  23354117.826 3 122726564.880 6  95631087.466 3        38.000 6
        20.000 3
 13 10 21  5 23 34.0000000  0  7G01G04G13G17G20G23G28
  24570430.698 6  24570445.678 3 129118483.887 6 100611806.386 3        37.000 6
        19.000 3
  21094294.860 8  21094305.580 6 110851267.900 8  86377611.240 6        49.000 8
        41.000 6
  22724877.030 7  22724889.830 5 119420034.320 7  93054571.856 5        45.000 7
        32.000 5
  20231695.246 9  20231704.906 8 106318276.693 9  82845410.113 8        55.000 9
        50.000 8
  22242336.992 7  22242345.692 5 116884269.581 7  91078652.050 5        47.000 7
        34.000 5
  22410334.612 8  22410342.932 5 117767102.114 8  91766573.086 5        49.000 8
        35.000 5
  23354706.446 6  23354733.826 3 122729802.329 6  95633610.106 3        38.000 6
        19.000 3
 13 10 21  5 23 35.0000000  0  7G01G04G13G17G20G23G28
  24570902.578 6  24570917.698 3 129120962.669 6 100613737.912 3        37.000 6
        21.000 3
  21094022.920 8  21094033.620 6 110849839.174 8  86376497.953 6        50.000 8
        41.000 6
  22724377.030 7  22724389.390 5 119417408.143 7  93052525.498 5        45.000 7
        31.000 5
  20231671.646 9  20231680.726 8 106318152.963 9  82845313.702 8        54.000 9
        50.000 8
  22242886.352 7  22242895.472 5 116887156.443 7  91080901.546 5        47.000 7
        34.000 5
  22410186.612 8  22410195.172 6 117766324.473 8  91765967.138 6        49.000 8
        36.000 6
  23355322.526 6  23355349.306 3 122733036.060 6  95636129.851 3        38.000 6
        18.000 3
 13 10 21  5 23 36.0000000  0  7G01G04G13G17G20G23G28
  24571374.758 6  24571389.418 3 129123443.613 6 100615671.107 3        37.000 6
        21.000 3
  21093751.440 8  21093762.120 6 110848412.721 8  86375386.431 6        50.000 8
        41.000 6
  22723877.650 7  22723890.710 5 119414784.395 7  93050481.021 5        45.000 7
        32.000 5
  20231648.666 9  20231657.926 8 106318031.874 9  82845219.347 8        54.000 9
        50.000 8
  22243436.292 7  22243445.452 5 116890045.625 7  91083152.859 5        47.000 7
        34.000 5
  22410039.152 8  22410047.412 5 117765549.448 8  91765363.222 5        49.000 8
        35.000 5
  23355938.066 6  23355965.346 3 122736272.024 6  95638651.363 3        38.000 6
        18.000 3
 13 10 21  5 23 37.0000000  0  7G01G04G13G17G20G23G28
  24571846.418 6  24571861.758 3 129125924.413 6 100617604.200 3        37.000 6
        21.000 3
  21093480.120 8  21093490.600 6 110846986.323 8  86374274.954 6        50.000 8
        41.000 6
  22723378.570 7  22723391.430 5 119412160.753 7  93048436.637 5        45.000 7
        32.000 5
  20231625.726 9  20231635.426 8 106317911.137 9  82845125.264 8        54.000 9
        50.000 8
  22243986.152 7  22243994.912 5 116892934.822 7  91085404.181 5        47.000 7
        34.000 5
  22409891.632 8  22409900.192 5 117764774.811 8  91764759.611 5        49.000 8
        35.000 5
  23356553.746 6  23356581.066 3 122739507.888 6  95641172.775 3        37.000 6
        18.000 3
 13 10 21  5 23 38.0000000  0  7G01G04G13G17G20G23G28
  24572317.718 6  24572333.838 3 129128404.230 6 100619536.519 3        37.000 6
        21.000 3
  21093208.440 8  21093219.260 6 110845559.179 8  86373162.892 6        50.000 8
        41.000 6
  22722878.790 7  22722891.890 5 119409536.504 7  93046391.774 5        45.000 7
        31.000 5
  20231602.766 9  20231611.666 8 106317789.998 9  82845030.876 8        54.000 9
        50.000 8
  22244535.692 7  22244544.432 5 116895823.273 7  91087654.923 5        47.000 7
        35.000 5
  22409744.272 8  22409752.932 5 117763999.761 8  91764155.685 5        49.000 8
        35.000 5
  23357169.246 6  23357197.186 3 122742742.901 6  95643693.548 3        38.000 6
        19.000 3
 13 10 21  5 23 39.0000000  0  7G01G04G13G17G20G23G28
  24572790.938 6  24572805.518 3 129130883.311 6 100621468.263 3        36.000 6
        21.000 3
  21092937.180 8  21092947.580 6 110844131.435 8  86372050.373 6        50.000 8
        41.000 6
  22722379.350 7  22722392.530 5 119406911.769 7  93044346.542 5        45.000 7
        31.000 5
  20231579.726 9  20231588.686 8 106317668.572 9  82844936.259 8        55.000 9
        50.000 8
  22245085.212 7  22245094.172 5 116898711.147 7  91089905.207 5        47.000 7
        34.000 5
  22409596.552 8  22409605.512 6 117763224.441 8  91763551.539 6        49.000 8
        36.000 6
  23357785.646 6  23357812.166 3 122745977.215 6  95646213.745 3        38.000 6
        18.000 3
 13 10 21  5 23 40.0000000  0  7G01G04G13G17G20G23G28
  24573262.318 6  24573277.898 3 129133365.291 6 100623402.283 3        36.000 6
        21.000 3
  21092665.500 8  21092676.400 6 110842706.801 8  86370940.266 6        49.000 8
        40.000 6
  22721880.330 7  22721893.470 5 119404290.229 7  93042303.782 5        45.000 7
        31.000 5
  20231557.386 9  20231566.626 8 106317550.607 9  82844844.340 8        54.000 9
        50.000 8
  22245635.172 7  22245644.332 5 116901602.123 7  91092157.912 5        47.000 7
        34.000 5
  22409450.012 8  22409458.312 6 117762452.558 8  91762950.070 6        49.000 8
        36.000 6
  23358401.166 6  23358428.726 3 122749214.485 6  95648736.250 3        38.000 6
        18.000 3
 13 10 21  5 23 41.0000000  0  7G01G04G13G17G20G23G28
  24573734.558 6  24573750.018 3 129135845.644 6 100625335.013 3        36.000 6
        20.000 3
  21092394.080 8  21092405.180 6 110841280.710 8  86369829.031 6        49.000 8
        41.000 6
  22721381.370 7  22721394.170 5 119401667.322 7  93040259.964 5        45.000 7
        31.000 5
  20231534.606 9  20231543.446 8 106317431.478 9  82844751.513 8        54.000 9
        50.000 8
  22246184.932 7  22246193.912 5 116904491.602 7  91094409.452 5        47.000 7
        34.000 5
  22409302.632 8  22409311.212 6 117761679.519 8  91762347.712 6        49.000 8
        36.000 6
  23359016.386 6  23359044.566 3 122752450.247 6  95651257.580 3        38.000 6
        18.000 3
 13 10 21  5 23 42.0000000  0  7G01G04G13G17G20G23G28
  24574205.858 6  24574221.618 3 129138324.762 6 100627266.792 3        36.000 6
        20.000 3
  21092122.700 8  21092133.620 6 110839853.592 8  86368716.995 6        50.000 8
        41.000 6
  22720882.270 7  22720894.710 5 119399043.515 7  93038215.451 5        45.000 7
        32.000 5
  20231511.986 9  20231520.626 8 106317311.656 9  82844658.140 8        54.000 9
        50.000 8
  22246734.992 7  22246743.732 5 116907380.103 7  91096660.226 5        47.000 7
        34.000 5
  22409155.072 8  22409164.052 6 117760905.793 8  91761744.813 6        49.000 8
        36.000 6
  23359632.226 6  23359659.906 3 122755684.800 6  95653777.974 3        38.000 6
        18.000 3
 13 10 21  5 23 43.0000000  0  7G01G04G13G17G20G23G28
  24574678.478 6  24574693.938 3 129140807.272 6 100629201.205 3        37.000 6
        20.000 3
  21091851.840 8  21091862.800 6 110838430.040 8  86367607.737 6        50.000 8
        41.000 6
  22720383.510 7  22720396.130 5 119396423.357 7  93036173.780 5        45.000 7
        31.000 5
  20231489.826 9  20231499.106 8 106317195.743 9  82844567.816 8        55.000 9
        50.000 8
  22247285.032 7  22247293.952 5 116910272.170 7  91098913.790 5        47.000 7
        34.000 5
  22409008.752 8  22409017.632 6 117760135.978 8  91761144.955 6        49.000 8
        36.000 6
  23360248.486 6  23360276.186 3 122758922.843 6  95656301.055 3        38.000 6
        18.000 3
 13 10 21  5 23 44.0000000  0  7G01G04G13G17G20G23G28
  24575149.318 6  24575166.098 3 129143286.884 6 100631133.370 3        37.000 6
        21.000 3
  21091580.560 8  21091591.220 6 110837003.779 8  86366496.363 6        50.000 8
        40.000 6
  22719884.650 7  22719897.470 5 119393800.608 7  93034130.090 5        45.000 7
        31.000 5
  20231467.206 9  20231476.146 8 106317077.447 9  82844475.642 8        55.000 9
        50.000 8
  22247834.812 7  22247843.932 5 116913161.506 7  91101165.232 5        47.000 7
        34.000 5
  22408861.632 8  22408870.472 5 117759363.795 8  91760543.262 5        49.000 8
        35.000 5
  23360864.186 6  23360891.306 3 122762158.095 6  95658821.977 3        38.000 6
        19.000 3
 13 10 21  5 23 45.0000000  0  7G01G04G13G17G20G23G28
  24575622.198 6  24575637.538 3 129145768.131 6 100633066.805 3        37.000 6
        21.000 3
  21091309.540 8  21091320.160 6 110835579.346 8  86365386.417 6        50.000 8
        41.000 6
  22719385.430 7  22719398.770 5 119391179.782 7  93032087.900 5        45.000 7
        32.000 5
  20231445.026 9  20231454.266 8 106316961.302 9  82844385.140 8        55.000 9
        50.000 8
  22248385.292 7  22248394.412 5 116916052.685 7  91103418.092 5        47.000 7
        33.000 5
  22408715.252 8  22408724.172 5 117758593.759 8  91759943.238 5        49.000 8
        35.000 5
  23361480.346 6  23361507.446 3 122765395.023 6  95661344.224 3        38.000 6
        18.000 3
 13 10 21  5 23 46.0000000  0  7G01G04G13G17G20G23G28
  24576094.018 6  24576109.738 3 129148248.818 6 100634999.787 3        37.000 6
        20.000 3
  21091038.100 8  21091049.000 6 110834154.535 8  86364276.177 6        50.000 8
        40.000 6
  22718887.070 7  22718899.730 5 119388558.686 7  93030045.494 5        45.000 7
        31.000 5
  20231422.966 9  20231431.906 8 106316845.116 9  82844294.607 8        55.000 9
        50.000 8
  22248935.032 7  22248944.772 5 116918943.493 7  91105670.668 5        47.000 7
        33.000 5
  22408568.652 8  22408577.652 6 117757823.660 8  91759343.163 6        49.000 8
        36.000 6
  23362096.326 6  23362123.286 3 122768631.476 6  95663866.111 3        38.000 6
        19.000 3
 13 10 21  5 23 47.0000000  0  7G01G04G13G17G20G23G28
  24576566.238 6  24576582.018 3 129150729.323 6 100636932.642 3        37.000 6
        21.000 3
  21090767.160 8  21090778.060 6 110832729.724 8  86363165.939 6        50.000 8
        41.000 6
  22718387.810 7  22718400.830 5 119385937.685 7  93028003.163 5        45.000 7
        31.000 5
  20231401.046 9  20231410.026 8 106316729.224 9  82844204.298 8        55.000 9
        50.000 8
  22249484.932 7  22249494.332 5 116921834.267 7  91107923.219 5        47.000 7
        34.000 5
  22408422.452 8  22408430.912 5 117757053.892 8  91758743.346 5        49.000 8
        35.000 5
  23362711.366 6  23362739.446 3 122771867.774 6  95666387.873 3        39.000 6
        19.000 3
 13 10 21  5 23 48.0000000  0  7G01G04G13G17G20G23G28
  24577038.338 6  24577053.998 3 129153208.680 6 100638864.595 3        36.000 6
        20.000 3
  21090495.920 8  21090506.240 6 110831303.957 8  86362054.952 6        50.000 8
        40.000 6
  22717888.790 7  22717902.090 5 119383315.850 7  93025960.180 5        45.000 7
        30.000 5
  20231378.966 9  20231388.226 8 106316612.731 9  82844113.527 8        55.000 9
        50.000 8
  22250035.652 7  22250044.252 5 116924724.085 7  91110175.023 5        46.000 7
        34.000 5
  22408275.532 8  22408284.412 6 117756283.501 8  91758143.043 6        49.000 8
        36.000 6
  23363327.766 6  23363355.106 3 122775103.036 6  95668908.818 3        39.000 6
        19.000 3
 13 10 21  5 23 49.0000000  0  7G01G04G13G17G20G23G28
  24577510.238 6  24577525.758 3 129155688.272 6 100640796.748 3        36.000 6
        21.000 3
  21090224.660 8  21090235.020 6 110829878.592 8  86360944.285 6        50.000 8
        40.000 6
  22717390.570 7  22717403.050 5 119380694.499 7  93023917.579 5        44.000 7
        30.000 5
  20231356.826 9  20231365.646 8 106316496.944 9  82844023.304 8        55.000 9
        50.000 8
  22250585.252 7  22250594.572 5 116927614.333 7  91112427.158 5        46.000 7
        33.000 5
  22408129.152 8  22408137.952 5 117755513.846 8  91757543.312 5        49.000 8
        35.000 5
  23363943.106 6  23363970.746 3 122778338.546 6  95671429.943 3        39.000 6
        20.000 3
 13 10 21  5 23 50.0000000  0  7G01G04G13G17G20G23G28
  24577982.358 6  24577997.858 3 129158170.054 6 100642730.619 3        36.000 6
        21.000 3
  21089953.980 8  21089964.540 6 110828455.617 8  86359835.476 6        50.000 8
        40.000 6
  22716891.930 7  22716904.550 5 119378075.663 7  93021876.935 5        45.000 7
        30.000 5
  20231335.406 9  20231344.286 8 106316383.924 9  82843935.236 8        55.000 9
        50.000 8
  22251135.252 7  22251145.272 5 116930506.936 7  91114681.131 5        46.000 7
        34.000 5
  22407983.252 8  22407991.932 5 117754746.900 8  91756945.694 5        49.000 8
        35.000 5
  23364560.266 6  23364587.046 3 122781576.397 6  95673952.921 3        39.000 6
        20.000 3
 13 10 21  5 23 51.0000000  0  7G01G04G13G17G20G23G28
  24578453.478 6  24578469.938 3 129160651.054 6 100644663.873 3        36.000 6
        20.000 3
  21089682.940 8  21089693.760 6 110827032.076 8  86358726.221 6        50.000 8
        40.000 6
  22716393.450 7  22716406.370 5 119375456.338 7  93019835.911 5        45.000 7
        31.000 5
  20231313.886 9  20231322.646 8 106316270.652 9  82843846.972 8        55.000 9
        50.000 8
  22251685.692 7  22251695.032 5 116933398.995 7  91116934.685 5        46.000 7
        32.000 5
  22407837.392 8  22407846.012 5 117753979.709 8  91756347.883 5        48.000 8
        35.000 5
  23365175.586 6  23365202.886 3 122784813.538 6  95676475.301 3        39.000 6
        20.000 3
 13 10 21  5 23 52.0000000  0  7G01G04G13G17G20G23G28
  24578926.158 6  24578941.778 3 129163131.972 6 100646597.048 3        36.000 6
        19.000 3
  21089412.040 8  21089423.320 6 110825608.613 8  86357617.035 6        50.000 8
        40.000 6
  22715894.970 7  22715908.170 5 119372837.197 7  93017795.034 5        45.000 7
        31.000 5
  20231292.346 9  20231301.146 8 106316157.779 9  82843759.017 8        55.000 9
        50.000 8
  22252236.592 7  22252245.492 5 116936291.132 7  91119188.297 5        46.000 7
        33.000 5
  22407691.312 8  22407699.632 5 117753212.952 8  91755750.410 5        48.000 8
        35.000 5
  23365791.726 6  23365819.186 3 122788050.629 6  95678997.679 3        39.000 6
        20.000 3
 13 10 21  5 23 53.0000000  0  7G01G04G13G17G20G23G28
  24579398.818 6  24579414.218 3 129165613.925 6 100648531.035 3        36.000 6
        20.000 3
  21089141.400 8  21089152.000 6 110824186.340 8  86356508.775 6        49.000 8
        40.000 6
  22715396.670 7  22715410.110 5 119370219.388 7  93015755.185 5        44.000 7
        31.000 5
  20231271.046 9  20231280.486 8 106316046.448 9  82843672.268 8        55.000 9
        50.000 8
  22252786.752 7  22252795.872 5 116939184.458 7  91121442.836 5        46.000 7
        33.000 5
  22407545.852 8  22407554.452 6 117752447.711 8  91755154.128 6        48.000 8
        36.000 6
  23366408.266 6  23366435.246 3 122791288.829 6  95681520.891 3        38.000 6
        19.000 3
 13 10 21  5 23 54.0000000  0  7G01G04G13G17G20G23G28
  24579870.798 6  24579886.818 3 129168094.257 6 100650463.772 3        36.000 6
        19.000 3
  21088870.260 8  21088880.980 6 110822762.669 8  86355399.419 6        49.000 8
        40.000 6
  22714898.250 7  22714911.450 5 119367600.254 7  93013714.312 5        44.000 7
        30.000 5
  20231249.666 9  20231259.046 8 106315934.027 9  82843584.670 8        55.000 9
        50.000 8
  22253337.332 7  22253346.072 5 116942076.367 7  91123696.274 5        46.000 7
        34.000 5
  22407399.852 8  22407408.332 6 117751681.385 8  91754556.993 6        48.000 8
        36.000 6
  23367024.226 6  23367050.866 3 122794525.490 6  95684042.931 3        38.000 6
        19.000 3
 13 10 21  5 23 55.0000000  0  7G01G04G13G17G20G23G28
  24580342.338 6  24580358.158 3 129170574.518 6 100652396.439 3        36.000 6
        19.000 3
  21088599.500 8  21088609.700 6 110821339.120 8  86354290.168 6        49.000 8
        40.000 6
  22714399.830 7  22714412.870 5 119364981.349 7  93011673.619 5        44.000 7
        30.000 5
  20231228.126 9  20231237.486 8 106315822.048 9  82843497.415 8        55.000 9
        50.000 8
  22253887.652 7  22253896.772 5 116944968.420 7  91125949.818 5        46.000 7
        34.000 5
  22407254.192 8  22407262.272 6 117750915.514 8  91753960.208 6        48.000 8
        36.000 6
  23367639.886 6  23367667.126 3 122797762.182 6  95686565.006 3        38.000 6
        20.000 3
 13 10 21  5 23 56.0000000  0  7G01G04G13G17G20G23G28
  24580814.758 6  24580830.198 3 129173053.894 6 100654328.416 3        37.000 6
        21.000 3
  21088328.660 8  21088339.260 6 110819914.837 8  86353180.339 6        49.000 8
        40.000 6
  22713900.990 7  22713914.150 5 119362361.859 7  93009632.470 5        44.000 7
        31.000 5
  20231206.986 9  20231215.866 8 106315709.684 9  82843409.851 8        55.000 9
        50.000 8
  22254438.092 7  22254447.092 5 116947859.725 7  91128202.787 5        46.000 7
        33.000 5
  22407108.772 8  22407116.632 6 117750149.230 8  91753363.106 6        49.000 8
        36.000 6
  23368255.806 6  23368283.186 3 122800998.059 6  95689086.424 3        38.000 6
        19.000 3
 13 10 21  5 23 57.0000000  0  7G01G04G13G17G20G23G28
  24581287.798 6  24581302.598 3 129175536.499 6 100656262.884 3        36.000 6
        20.000 3
  21088058.160 8  21088068.660 6 110818494.017 8  86352073.211 6        49.000 8
        40.000 6
  22713403.710 7  22713416.570 5 119359745.900 7  93007594.062 5        44.000 7
        30.000 5
  20231186.146 9  20231195.446 8 106315601.081 9  82843325.227 8        55.000 9
        50.000 8
  22254988.472 7  22254997.832 5 116950754.480 7  91130458.435 5        46.000 7
        33.000 5
  22406963.492 8  22406971.852 5 117749386.753 8  91752768.974 5        48.000 8
        35.000 5
  23368872.386 6  23368899.866 3 122804237.289 6  95691610.471 3        38.000 6
        18.000 3
 13 10 21  5 23 58.0000000  0  7G01G04G13G17G20G23G28
  24581758.818 6  24581774.698 3 129178016.720 6 100658195.516 3        36.000 6
        20.000 3
  21087787.220 8  21087798.000 6 110817070.993 8  86350964.363 6        49.000 8
        40.000 6
  22712905.570 7  22712918.250 5 119357127.849 7  93005554.031 5        44.000 7
        31.000 5
  20231165.226 9  20231174.466 8 106315490.628 9  82843239.162 8        54.000 9
        50.000 8
  22255539.412 7  22255548.112 5 116953647.069 7  91132712.403 5        45.000 7
        34.000 5
  22406817.852 8  22406826.152 6 117748622.406 8  91752173.379 6        48.000 8
        36.000 6
  23369488.466 6  23369515.426 3 122807474.173 6  95694132.679 3        38.000 6
        18.000 3
 13 10 21  5 23 59.0000000  0  7G01G04G13G17G20G23G28
  24582230.998 6  24582246.518 3 129180496.868 6 100660128.099 3        37.000 6
        20.000 3
  21087516.560 8  21087527.420 6 110815648.040 8  86349855.570 6        49.000 8
        40.000 6
  22712407.370 7  22712420.110 5 119354509.971 7  93003514.130 5        45.000 7
        31.000 5
  20231144.326 9  20231153.446 8 106315380.561 9  82843153.391 8        55.000 9
        50.000 8
  22256090.212 7  22256098.552 5 116956539.722 7  91134966.412 5        46.000 7
        34.000 5
  22406672.552 8  22406680.932 5 117747858.444 8  91751578.095 5        49.000 8
        35.000 5
  23370104.326 6  23370131.326 3 122810711.018 6  95696654.858 3        38.000 6
        18.000 3
 13 10 21  5 24  0.0000000  0  7G01G04G13G17G20G23G28
  24582703.698 6  24582718.978 3 129182977.999 6 100662061.460 3        37.000 6
        20.000 3
  21087246.140 8  21087256.760 6 110814226.292 8  86348747.723 6        49.000 8
        40.000 6
  22711909.150 7  22711922.210 5 119351893.437 7  93001475.278 5        45.000 7
        30.000 5
  20231123.566 9  20231132.706 8 106315272.034 9  82843068.825 8        55.000 9
        50.000 8
  22256640.092 7  22256649.292 5 116959433.576 7  91137221.367 5        46.000 7
        33.000 5
  22406527.952 8  22406535.512 6 117747096.038 8  91750984.008 6        49.000 8
        36.000 6
  23370720.546 6  23370747.706 3 122813948.965 6  95699177.890 3        38.000 6
        18.000 3
 13 10 21  5 24  1.0000000  0  7G01G04G13G17G20G23G28
  24583175.096 6  24583190.816 3 129185458.796 6 100663994.545 3        36.000 6
        20.000 3
  21086975.620 8  21086986.000 6 110812804.382 8  86347639.744 6        49.000 8
        40.000 6
  22711411.430 7  22711424.030 5 119349276.810 7  92999436.359 5        45.000 7
        30.000 5
  20231102.926 9  20231111.966 8 106315163.647 9  82842984.373 8        55.000 9
        50.000 8
  22257191.072 7  22257199.692 5 116962327.229 7  91139476.166 5        45.000 7
        34.000 5
  22406382.232 8  22406390.632 6 117746333.777 8  91750390.052 6        49.000 8
        36.000 6
  23371336.786 6  23371363.906 3 122817186.624 6  95701700.694 3        38.000 6
        19.000 3
 13 10 21  5 24  2.0000000  0  7G01G04G13G17G20G23G28
  24583647.216 6  24583663.156 3 129187940.166 6 100665928.086 3        37.000 6
        21.000 3
  21086705.080 8  21086715.860 6 110811383.221 8  86346532.351 6        50.000 8
        41.000 6
  22710913.830 7  22710926.410 5 119346661.050 7  92997398.119 5        44.000 7
        31.000 5
  20231082.666 9  20231091.606 8 106315056.357 9  82842900.773 8        55.000 9
        50.000 8
  22257741.632 7  22257750.992 5 116965221.692 7  91141731.592 5        46.000 7
        34.000 5
  22406237.852 8  22406245.892 6 117745572.627 8  91749796.943 6        50.000 8
        36.000 6
  23371953.266 6  23371980.406 3 122820424.888 6  95704223.985 3        38.000 6
        19.000 3
 13 10 21  5 24  3.0000000  0  7G01G04G13G17G20G23G28
  24584119.936 6  24584135.796 3 129190423.118 6 100667862.856 3        37.000 6
        21.000 3
  21086435.000 8  21086445.160 6 110809963.852 8  86345426.351 6        50.000 8
        40.000 6
  22710416.510 7  22710429.110 5 119344047.193 7  92995361.359 5        44.000 7
        31.000 5
  20231062.466 9  20231071.906 8 106314951.191 9  82842818.821 8        55.000 9
        50.000 8
  22258292.632 7  22258302.052 5 116968117.916 7  91143988.386 5        46.000 7
        33.000 5
  22406092.952 8  22406101.332 6 117744813.595 8  91749205.493 6        49.000 8
        36.000 6
  23372569.106 6  23372596.546 3 122823664.893 6  95706748.597 3        38.000 6
        19.000 3
 13 10 21  5 24  4.0000000  0  7G01G04G13G17G20G23G28
  24584591.496 6  24584607.916 3 129192902.213 6 100669794.610 3        36.000 6
        20.000 3
  21086163.900 8  21086174.520 6 110808540.780 8  86344317.464 6        50.000 8
        41.000 6
  22709918.350 7  22709930.630 5 119341429.755 7  92993321.795 5        44.000 7
        30.000 5
  20231041.826 9  20231051.146 8 106314842.630 9  82842734.228 8        55.000 9
        50.000 8
  22258843.372 7  22258851.952 5 116971010.448 7  91146242.311 5        47.000 7
        33.000 5
  22405948.392 8  22405956.332 6 117744051.174 8  91748611.398 6        49.000 8
        36.000 6
  23373185.586 6  23373212.126 3 122826901.043 6  95709270.244 3        38.000 6
        19.000 3
 13 10 21  5 24  5.0000000  0  7G01G04G13G17G20G23G28
  24585063.776 6  24585079.876 3 129195383.433 6 100671728.024 3        37.000 6
        21.000 3
  21085893.880 8  21085904.320 6 110807120.047 8  86343210.406 6        50.000 8
        41.000 6
  22709420.790 7  22709433.150 5 119338814.744 7  92991284.134 5        44.000 7
        30.000 5
  20231021.746 9  20231030.726 8 106314736.741 9  82842651.711 8        55.000 9
        50.000 8
  22259394.072 7  22259403.532 5 116973905.252 7  91148498.004 5        46.000 7
        33.000 5
  22405803.572 8  22405811.592 6 117743291.445 8  91748019.408 6        49.000 8
        36.000 6
  23373801.386 6  23373828.286 3 122830139.396 6  95711793.595 3        39.000 6
        19.000 3
 13 10 21  5 24  6.0000000  0  7G01G04G13G17G20G23G28
  24585535.976 6  24585552.396 3 129197865.504 6 100673662.112 3        37.000 6
        21.000 3
  21085623.220 8  21085634.280 7 110805700.313 8  86342104.119 7        49.000 8
        42.000 7
  22708923.210 7  22708935.770 5 119336200.844 7  92989247.333 5        44.000 7
        30.000 5
  20231001.906 9  20231010.786 8 106314632.184 9  82842570.246 8        55.000 9
        50.000 8
  22259945.272 7  22259954.092 5 116976801.116 7  91150754.517 5        46.000 7
        34.000 5
  22405659.332 8  22405667.312 5 117742533.041 8  91747428.446 5        49.000 8
        35.000 5
  23374418.166 6  23374445.206 2 122833378.650 6  95714317.654 2        38.000 6
        17.000 2
 13 10 21  5 24  7.0000000  0  7G01G04G13G17G20G23G28
  24586008.216 6  24586024.656 3 129200347.213 6 100675595.913 3        37.000 6
        21.000 3
  21085353.780 8  21085363.960 6 110804280.491 8  86340997.765 6        50.000 8
        41.000 6
  22708425.590 7  22708438.370 5 119333586.950 7  92987210.547 5        44.000 7
        30.000 5
  20230981.906 9  20230991.026 8 106314527.877 9  82842488.966 8        55.000 9
        50.000 8
  22260495.672 7  22260505.352 5 116979696.874 7  91153010.950 5        46.000 7
        33.000 5
  22405515.132 8  22405523.152 5 117741774.879 8  91746837.674 5        49.000 8
        35.000 5
  23375033.946 6  23375061.466 3 122836617.717 6  95716841.565 3        38.000 6
        18.000 3
 13 10 21  5 24  8.0000000  0  7G01G04G13G17G20G23G28
  24586480.916 6  24586496.576 3 129202829.240 6 100677529.939 3        37.000 6
        21.000 3
  21085083.440 8  21085093.900 6 110802861.064 8  86339891.722 6        50.000 8
        40.000 6
  22707928.710 7  22707941.070 5 119330973.579 7  92985174.162 5        45.000 7
        31.000 5
  20230962.226 9  20230971.486 8 106314424.274 9  82842408.234 8        55.000 9
        50.000 8
  22261047.292 7  22261056.832 5 116982593.032 7  91155267.693 5        45.000 7
        33.000 5
  22405370.452 8  22405378.912 6 117741017.423 8  91746247.449 6        49.000 8
        36.000 6
  23375650.606 6  23375678.266 3 122839857.063 6  95719365.698 3        38.000 6
        19.000 3
 13 10 21  5 24  9.0000000  0  7G01G04G13G17G20G23G28
  24586952.416 6  24586969.156 3 129205309.998 6 100679462.993 3        37.000 6
        21.000 3
  21084812.980 8  21084823.460 6 110801440.607 8  86338784.879 6        50.000 8
        40.000 6
  22707431.250 7  22707443.750 5 119328359.273 7  92983137.048 5        45.000 7
        31.000 5
  20230942.526 9  20230951.766 8 106314319.977 9  82842326.964 8        55.000 9
        50.000 8
  22261598.292 7  22261607.412 5 116985488.175 7  91157523.651 5        45.000 7
        33.000 5
  22405226.492 8  22405234.892 6 117740259.300 8  91745656.712 6        49.000 8
        36.000 6
  23376267.306 6  23376294.526 3 122843095.247 6  95721888.928 3        38.000 6
        18.000 3
 13 10 21  5 24 10.0000000  0  7G01G04G13G17G20G23G28
  24587424.796 6  24587440.856 3 129207791.297 6 100681396.485 3        37.000 6
        21.000 3
  21084542.800 8  21084553.000 6 110800020.849 8  86337678.573 6        51.000 8
        41.000 6
  22706933.750 7  22706946.090 5 119325745.786 7  92981100.567 5        45.000 7
        30.000 5
  20230922.706 9  20230932.046 8 106314216.697 9  82842246.488 8        55.000 9
        50.000 8
  22262149.272 7  22262158.372 5 116988383.981 7  91159780.117 5        45.000 7
        33.000 5
  22405082.492 8  22405090.972 6 117739502.189 8  91745066.753 6        49.000 8
        36.000 6
  23376883.466 6  23376910.686 3 122846334.031 6  95724412.625 3        38.000 6
        19.000 3
 13 10 21  5 24 11.0000000  0  7G01G04G13G17G20G23G28
  24587897.016 6  24587912.856 3 129210270.643 6 100683328.437 3        37.000 6
        20.000 3
  21084272.700 8  21084282.660 6 110798599.354 8  86336570.921 6        51.000 8
        41.000 6
  22706436.230 7  22706448.810 5 119323130.665 7  92979062.819 5        45.000 7
        30.000 5
  20230902.986 9  20230911.826 8 106314112.027 9  82842164.923 8        55.000 9
        50.000 8
  22262700.032 7  22262709.352 5 116991278.063 7  91162035.247 5        45.000 7
        34.000 5
  22404938.012 8  22404946.432 6 117738743.672 8  91744475.709 6        49.000 8
        36.000 6
  23377499.526 6  23377526.626 3 122849570.983 6  95726934.855 3        39.000 6
        19.000 3
 13 10 21  5 24 12.0000000  0  7G01G04G13G17G20G23G28
  24588369.436 6  24588385.616 3 129212753.963 6 100685263.498 3        37.000 6
        20.000 3
  21084002.700 8  21084013.140 6 110797182.016 8  86335466.504 6        50.000 8
        41.000 6
  22705939.250 7  22705951.910 5 119320519.800 7  92977028.391 5        45.000 7
        30.000 5
  20230883.986 9  20230893.126 8 106314011.827 9  82842086.845 8        55.000 9
        50.000 8
  22263251.552 7  22263261.052 5 116994176.278 7  91164293.597 5        45.000 7
        33.000 5
  22404794.532 8  22404802.792 5 117737989.651 8  91743888.158 5        49.000 8
        35.000 5
  23378116.406 6  23378143.786 3 122852811.913 6  95729460.188 3        38.000 6
        18.000 3
 13 10 21  5 24 13.0000000  0  7G01G04G13G17G20G23G28
  24588842.316 6  24588857.796 3 129215235.827 6 100687197.414 3        37.000 6
        21.000 3
  21083732.560 8  21083743.020 6 110795763.395 8  86334361.087 6        50.000 8
        41.000 6
  22705442.030 7  22705454.610 5 119317907.761 7  92974993.036 5        44.000 7
        31.000 5
  20230864.466 9  20230873.666 8 106313910.678 9  82842008.030 8        54.000 9
        50.000 8
  22263803.012 7  22263812.012 5 116997073.222 7  91166550.951 5        45.000 7
        34.000 5
  22404650.692 8  22404659.172 6 117737234.649 8  91743299.845 6        49.000 8
        36.000 6
  23378732.946 6  23378760.086 3 122856051.487 6  95731984.511 3        38.000 6
        18.000 3
 13 10 21  5 24 14.0000000  0  7G01G04G13G17G20G23G28
  24589314.456 6  24589330.116 3 129217717.207 6 100689130.947 3        37.000 6
        21.000 3
  21083462.780 8  21083473.000 6 110794344.454 8  86333255.413 6        50.000 8
        41.000 6
  22704944.770 7  22704957.290 5 119315295.520 7  92972957.534 5        45.000 7
        30.000 5
  20230845.026 8  20230854.546 8 106313809.550 8  82841929.229 8        53.000 8
        50.000 8
  22264354.092 7  22264363.252 5 116999969.858 7  91168808.070 5        45.000 7
        33.000 5
  22404507.692 8  22404515.532 5 117736479.705 8  91742711.584 5        49.000 8
        35.000 5
  23379348.646 6  23379376.386 3 122859290.646 6  95734508.500 3        39.000 6
        18.000 3
 13 10 21  5 24 15.0000000  0  7G01G04G13G17G20G23G28
  24589786.976 6  24589802.116 3 129220199.237 6 100691064.989 3        37.000 6
        20.000 3
  21083192.700 8  21083203.540 6 110792926.375 8  86332150.424 6        49.000 8
        41.000 6
  22704448.150 7  22704460.370 5 119312684.261 7  92970922.797 5        45.000 7
        30.000 5
  20230826.306 8  20230835.686 8 106313709.589 8  82841851.335 8        53.000 8
        50.000 8
  22264905.312 7  22264914.552 5 117002867.366 7  91171065.869 5        45.000 7
        34.000 5
  22404363.992 8  22404372.012 5 117735725.934 8  91742124.233 5        49.000 8
        35.000 5
  23379965.326 6  23379993.026 3 122862530.547 6  95737033.059 3        39.000 6
        18.000 3
 13 10 21  5 24 16.0000000  0  7G01G04G13G17G20G23G28
  24590258.056 6  24590274.796 3 129222679.293 6 100692997.501 3        36.000 6
        20.000 3
  21082922.560 8  21082932.740 6 110791506.530 8  86331044.056 6        50.000 8
        40.000 6
  22703950.930 7  22703963.270 5 119310071.313 7  92968886.746 5        45.000 7
        30.000 5
  20230806.906 9  20230816.106 8 106313608.190 9  82841772.327 8        54.000 9
        50.000 8
  22265456.992 7  22265465.792 5 117005763.074 7  91173322.265 5        45.000 7
        34.000 5
  22404220.272 8  22404228.172 5 117734970.719 8  91741535.757 5        49.000 8
        35.000 5
  23380581.446 6  23380609.266 3 122865768.550 6  95739556.148 3        38.000 6
        18.000 3
 13 10 21  5 24 17.0000000  0  7G01G04G13G17G20G23G28
  24590730.196 6  24590746.356 3 129225158.274 6 100694929.166 3        37.000 6
        20.000 3
  21082652.480 8  21082662.300 6 110790085.776 8  86329936.977 6        50.000 8
        41.000 6
  22703453.470 7  22703466.050 5 119307457.603 7  92966850.101 5        45.000 7
        30.000 5
  20230787.646 9  20230796.606 8 106313506.232 9  82841692.877 8        54.000 9
        50.000 8
  22266007.372 7  22266016.152 5 117008657.905 7  91175577.973 5        45.000 7
        33.000 5
  22404076.752 8  22404084.572 5 117734214.945 8  91740946.842 5        49.000 8
        35.000 5
  23381198.566 6  23381225.206 3 122869005.544 6  95742078.419 3        38.000 6
        18.000 3
 13 10 21  5 24 18.0000000  0  7G01G04G13G17G20G23G28
  24591203.016 6  24591219.536 3 129227643.399 6 100696865.631 3        36.000 6
        21.000 3
  21082382.980 8  21082393.680 6 110788671.312 8  86328834.797 6        50.000 8
        41.000 6
  22702957.210 7  22702969.970 5 119304850.262 7  92964818.417 5        45.000 7
        31.000 5
  20230769.586 8  20230778.746 8 106313410.887 8  82841618.587 8        53.000 8
        50.000 8
  22266559.532 7  22266568.632 5 117011558.984 7  91177838.555 5        45.000 7
        33.000 5
  22403934.012 8  22403942.012 5 117733465.774 8  91740363.078 5        49.000 8
        35.000 5
  23381814.686 6  23381842.426 3 122872248.660 6  95744605.490 3        38.000 6
        19.000 3
 13 10 21  5 24 19.0000000  0  7G01G04G13G17G20G23G28
  24591674.736 6  24591691.576 3 129230126.059 6 100698800.174 3        37.000 6
        20.000 3
  21082113.460 8  21082123.840 6 110787254.623 8  86327730.890 6        50.000 8
        41.000 6
  22702460.570 7  22702473.350 5 119302240.803 7  92962785.076 5        44.000 7
        30.000 5
  20230750.986 8  20230760.186 8 106313313.609 8  82841542.783 8        53.000 8
        50.000 8
  22267110.772 7  22267120.412 5 117014457.848 7  91180097.406 5        45.000 7
        33.000 5
  22403791.172 8  22403799.492 5 117732714.688 8  91739777.816 5        49.000 8
        35.000 5
  23382431.966 6  23382459.166 3 122875489.456 6  95747130.767 3        38.000 6
        18.000 3
 13 10 21  5 24 20.0000000  0  7G01G04G13G17G20G23G28
  24592146.896 6  24592163.696 3 129232605.908 6 100700732.546 3        37.000 6
        21.000 3
  21081843.520 8  21081853.660 6 110785835.304 8  86326624.930 6        50.000 8
        41.000 6
  22701963.610 7  22701976.270 5 119299628.782 7  92960749.742 5        45.000 7
        31.000 5
  20230732.146 8  20230740.926 8 106313214.050 8  82841465.205 8        53.000 8
        50.000 8
  22267662.192 7  22267671.612 5 117017354.046 7  91182354.183 5        45.000 7
        33.000 5
  22403647.472 8  22403655.672 6 117731961.310 8  91739190.771 6        49.000 8
        36.000 6
  23383047.366 6  23383075.166 3 122878727.506 6  95749653.893 3        38.000 6
        18.000 3
 13 10 21  5 24 21.0000000  0  7G01G04G13G17G20G23G28
  24592619.856 6  24592636.176 3 129235088.991 6 100702667.418 3        37.000 6
        20.000 3
  21081574.260 8  21081584.520 6 110784419.395 8  86325521.627 6        50.000 8
        41.000 6
  22701467.210 7  22701479.830 5 119297020.348 7  92958717.204 5        44.000 7
        30.000 5
  20230713.706 8  20230723.026 8 106313118.229 8  82841390.541 8        53.000 8
        50.000 8
  22268213.932 7  22268223.392 5 117020253.693 7  91184613.640 5        44.000 7
        33.000 5
  22403504.772 8  22403512.952 5 117731211.653 8  91738606.624 5        49.000 8
        35.000 5
  23383664.986 6  23383691.926 3 122881968.833 6  95752179.547 3        38.000 6
        19.000 3
 13 10 21  5 24 22.0000000  0  7G01G04G13G17G20G23G28
  24593092.096 6  24593108.596 3 129237571.315 6 100704601.673 3        37.000 6
        20.000 3
  21081304.780 8  21081314.980 6 110783002.995 8  86324417.940 6        50.000 8
        40.000 6
  22700970.430 7  22700983.650 4 119294411.486 7  92956684.334 4        44.000 7
        29.000 4
  20230695.486 8  20230704.866 8 106313022.249 8  82841315.751 8        53.000 8
        50.000 8
  22268765.832 7  22268775.052 5 117023152.825 7  91186872.708 5        45.000 7
        34.000 5
  22403361.912 8  22403370.332 6 117730461.873 8  91738022.386 6        49.000 8
        36.000 6
  23384281.904 6  23384308.884 3 122885209.540 6  95754704.709 3        38.000 6
        19.000 3
 13 10 21  5 24 23.0000000  0  7G01G04G13G17G20G23G28
  24593564.196 6  24593580.736 3 129240053.084 6 100706535.520 3        37.000 6
        20.000 3
  21081035.120 8  21081045.500 6 110781586.132 8  86323313.892 6        50.000 8
        40.000 6
  22700473.830 7  22700486.850 5 119291802.293 7  92954651.201 5        44.000 7
        30.000 5
  20230677.306 9  20230686.786 8 106312926.134 9  82841240.855 8        54.000 9
        50.000 8
  22269317.512 7  22269326.392 5 117026051.500 7  91189131.416 5        45.000 7
        34.000 5
  22403219.572 8  22403227.572 6 117729711.953 8  91737438.029 6        49.000 8
        36.000 6
  23384897.544 6  23384925.644 3 122888449.708 6  95757229.458 3        38.000 6
        18.000 3
 13 10 21  5 24 24.0000000  0  7G01G04G13G17G20G23G28
  24594036.896 6  24594052.996 3 129242534.199 6 100708468.860 3        37.000 6
        20.000 3
  21080764.800 8  21080775.440 6 110780168.870 8  86322209.530 6        50.000 8
        40.000 6
  22699977.610 7  22699990.490 5 119289192.787 7  92952617.827 5        43.000 7
        30.000 5
  20230659.106 8  20230668.246 8 106312829.922 8  82841165.887 8        53.000 8
        50.000 8
  22269869.272 7  22269878.272 5 117028949.757 7  91191389.796 5        46.000 7
        33.000 5
  22403076.812 8  22403084.932 5 117728961.933 8  91736853.604 5        49.000 8
        35.000 5
  23385514.524 6  23385541.784 3 122891689.335 6  95759753.804 3        37.000 6
        18.000 3
 13 10 21  5 24 25.0000000  0  7G01G04G13G17G20G23G28
  24594509.096 6  24594525.656 3 129245017.416 6 100710403.837 3        37.000 6
        20.000 3
  21080495.960 8  21080506.480 6 110778753.841 8  86321106.914 6        50.000 8
        40.000 6
  22699481.730 7  22699494.330 5 119286585.645 7  92950586.299 5        44.000 7
        30.000 5
  20230641.226 8  20230650.486 8 106312736.301 8  82841092.933 8        53.000 8
        50.000 8
  22270420.572 7  22270429.812 5 117031850.250 7  91193649.916 5        46.000 7
        33.000 5
  22402934.072 8  22402942.732 5 117728214.509 8  91736271.200 5        49.000 8
        35.000 5
  23386131.684 6  23386158.764 3 122894931.098 6  95762279.812 3        38.000 6
        18.000 3
 13 10 21  5 24 26.0000000  0  7G01G04G13G17G20G23G28
  24594980.956 6  24594997.516 3 129247498.917 6 100712337.480 3        37.000 6
        21.000 3
  21080226.040 8  21080236.800 6 110777337.283 8  86320003.111 6        51.000 8
        40.000 6
  22698985.050 7  22698997.930 4 119283977.103 7  92948553.681 4        44.000 7
        29.000 4
  20230622.986 8  20230632.146 8 106312641.500 8  82841019.064 8        53.000 8
        50.000 8
  22270972.612 7  22270981.712 5 117034749.240 7  91195908.870 5        46.000 7
        33.000 5
  22402792.412 8  22402800.472 5 117727465.898 8  91735687.873 5        50.000 8
        35.000 5
  23386747.944 6  23386775.324 2 122898171.206 6  95764804.559 2        38.000 6
        16.000 2
 13 10 21  5 24 27.0000000  0  7G01G04G13G17G20G23G28
  24595453.216 6  24595469.536 3 129249981.451 6 100714271.912 3        37.000 6
        21.000 3
  21079956.920 8  21079967.180 6 110775921.961 8  86318900.258 6        51.000 8
        40.000 6
  22698488.510 7  22698501.670 5 119281369.865 7  92946522.075 5        44.000 7
        30.000 5
  20230605.286 8  20230614.426 8 106312548.234 8  82840946.389 8        53.000 8
        50.000 8
  22271524.252 7  22271533.492 5 117037649.431 7  91198168.765 5        46.000 7
        33.000 5
  22402649.672 8  22402657.772 5 117726718.824 8  91735105.743 5        49.000 8
        35.000 5
  23387364.424 6  23387392.104 2 122901412.388 6  95767330.154 2        37.000 6
        17.000 2
 13 10 21  5 24 28.0000000  0  7G01G04G13G17G20G23G28
  24595926.476 6  24595941.696 3 129252462.711 6 100716205.363 3        37.000 6
        20.000 3
  21079687.260 8  21079697.620 6 110774505.526 8  86317796.549 6        50.000 8
        40.000 6
  22697992.470 7  22698005.410 5 119278761.641 7  92944489.699 5        45.000 7
        30.000 5
  20230587.386 8  20230596.446 8 106312454.200 8  82840873.116 8        53.000 8
        50.000 8
  22272075.992 7  22272084.892 5 117040548.506 7  91200427.786 5        46.000 7
        33.000 5
  22402507.752 8  22402516.252 5 117725970.993 8  91734523.022 5        49.000 8
        35.000 5
  23387980.524 6  23388008.524 3 122904652.341 6  95769854.751 3        37.000 6
        18.000 3
 13 10 21  5 24 29.0000000  0  7G01G04G13G17G20G23G28
  24596397.976 6  24596414.336 3 129254944.081 6 100718138.886 3        36.000 6
        20.000 3
  21079418.080 8  21079428.440 6 110773089.376 8  86316693.055 6        50.000 8
        40.000 6
  22697496.290 7  22697508.690 5 119276153.840 7  92942457.657 5        44.000 7
        30.000 5
  20230569.826 9  20230578.846 8 106312360.779 9  82840800.318 8        54.000 9
        50.000 8
  22272627.372 7  22272636.572 5 117043447.903 7  91202687.051 5        45.000 7
        33.000 5
  22402365.452 8  22402373.892 5 117725223.761 8  91733940.761 5        49.000 8
        35.000 5
  23388597.744 6  23388625.164 3 122907892.551 6  95772379.519 3        38.000 6
        18.000 3
 13 10 21  5 24 30.0000000  0  7G01G04G13G17G20G23G28
  24596870.336 6  24596886.216 3 129257427.590 6 100720074.079 3        37.000 6
        20.000 3
  21079148.880 8  21079159.580 6 110771675.571 8  86315591.395 6        50.000 8
        40.000 6
  22697000.590 7  22697013.430 5 119273548.467 7  92940427.508 5        44.000 7
        31.000 5
  20230552.426 9  20230561.586 8 106312270.019 9  82840729.596 8        54.000 9
        50.000 8
  22273179.832 7  22273189.072 5 117046349.581 7  91204948.103 5        46.000 7
        33.000 5
  22402223.672 8  22402232.112 5 117724479.222 8  91733360.607 5        49.000 8
        35.000 5
  23389214.944 6  23389242.404 3 122911134.942 6  95774906.004 3        38.000 6
        18.000 3
 13 10 21  5 24 31.0000000  0  7G01G04G13G17G20G23G28
  24597342.556 6  24597358.776 3 129259908.547 6 100722007.295 3        36.000 6
        21.000 3
  21078879.520 8  21078889.900 6 110770259.423 8  86314487.905 6        49.000 8
        40.000 6
  22696504.550 7  22696517.350 5 119270940.845 7  92938395.603 5        44.000 7
        30.000 5
  20230534.806 8  20230543.966 8 106312177.255 8  82840657.317 8        52.000 8
        50.000 8
  22273731.832 7  22273741.032 5 117049248.947 7  91207207.341 5        46.000 7
        33.000 5
  22402081.532 8  22402089.772 5 117723732.653 8  91732778.871 5        48.000 8
        35.000 5
  23389831.524 6  23389858.864 2 122914374.864 6  95777430.575 2        37.000 6
        17.000 2
 13 10 21  5 24 32.0000000  0  7G01G04G13G17G20G23G28
  24597815.616 6  24597831.416 3 129262391.134 6 100723941.778 3        37.000 6
        19.000 3
  21078610.260 8  21078620.900 6 110768845.062 8  86313385.804 6        49.000 8
        40.000 6
  22696008.630 7  22696021.210 5 119268335.151 7  92936365.200 5        45.000 7
        30.000 5
  20230517.826 8  20230526.926 8 106312086.613 8  82840586.685 8        52.000 8
        50.000 8
  22274283.332 7  22274292.892 5 117052150.098 7  91209467.981 5        44.000 7
        34.000 5
  22401939.572 8  22401948.072 5 117722988.214 8  91732198.790 5        48.000 8
        35.000 5
  23390448.724 6  23390475.624 3 122917616.424 6  95779956.407 3        38.000 6
        18.000 3
 13 10 21  5 24 33.0000000  0  7G01G04G13G17G20G23G28
  24598287.996 6  24598303.336 3 129264873.308 6 100725875.964 3        37.000 6
        19.000 3
  21078341.120 8  21078351.220 6 110767430.467 8  86312283.526 6        49.000 8
        40.000 6
  22695512.470 7  22695525.650 5 119265729.340 7  92934334.704 5        45.000 7
        30.000 5
  20230500.146 8  20230509.026 8 106311996.069 8  82840516.133 8        53.000 8
        50.000 8
  22274835.552 7  22274845.192 5 117055051.008 7  91211728.431 5        45.000 7
        34.000 5
  22401798.232 8  22401806.812 6 117722243.872 8  91731618.786 6        48.000 8
        36.000 6
  23391066.024 6  23391092.904 3 122920857.657 6  95782482.018 3        37.000 6
        19.000 3
 13 10 21  5 24 34.0000000  0  7G01G04G13G17G20G23G28
  24598760.456 6  24598776.036 3 129267356.123 6 100727810.619 3        37.000 6
        20.000 3
  21078071.680 8  21078082.340 6 110766016.707 8  86311181.903 6        50.000 8
        41.000 6
  22695017.210 7  22695029.890 5 119263124.447 7  92932304.928 5        45.000 7
        30.000 5
  20230483.266 8  20230492.306 8 106311906.676 8  82840446.476 8        53.000 8
        50.000 8
  22275387.992 7  22275397.392 5 117057952.718 7  91213989.510 5        45.000 7
        33.000 5
  22401657.212 8  22401665.612 6 117721500.692 8  91731039.687 6        48.000 8
        36.000 6
  23391681.844 6  23391709.564 3 122924099.585 6  95785008.170 3        38.000 6
        19.000 3
 13 10 21  5 24 35.0000000  0  7G01G04G13G17G20G23G28
  24599232.796 6  24599248.616 3 129269838.980 6 100729745.325 3        37.000 6
        20.000 3
  21077803.140 8  21077813.280 6 110764603.169 8  86310080.442 6        50.000 8
        41.000 6
  22694521.290 7  22694534.130 5 119260519.936 7  92930275.441 5        45.000 7
        30.000 5
  20230466.346 8  20230475.926 8 106311817.847 8  82840377.261 8        53.000 8
        50.000 8
  22275940.192 7  22275949.752 5 117060854.709 7  91216250.799 5        44.000 7
        33.000 5
  22401515.652 8  22401523.572 6 117720758.084 8  91730461.035 6        49.000 8
        36.000 6
  23392298.484 6  23392326.564 3 122927341.706 6  95787534.467 3        38.000 6
        18.000 3
 13 10 21  5 24 36.0000000  0  7G01G04G13G17G20G23G28
  24599705.516 6  24599720.676 3 129272320.302 6 100731678.809 3        37.000 6
        21.000 3
  21077533.600 8  21077544.340 6 110763188.305 8  86308977.954 6        50.000 8
        40.000 6
  22694026.030 7  22694038.230 5 119257914.164 7  92928244.971 5        45.000 7
        31.000 5
  20230449.486 8  20230458.686 8 106311728.002 8  82840307.247 8        53.000 8
        50.000 8
  22276491.972 7  22276501.492 5 117063755.328 7  91218511.018 5        45.000 7
        34.000 5
  22401373.752 8  22401382.392 5 117720014.463 8  91729881.590 5        49.000 8
        35.000 5
  23392916.344 6  23392943.144 3 122930582.299 6  95790059.568 3        37.000 6
        18.000 3
 13 10 21  5 24 37.0000000  0  7G01G04G13G17G20G23G28
  24600177.976 6  24600193.416 3 129274804.460 6 100733614.526 3        36.000 6
        20.000 3
  21077264.880 8  21077275.300 6 110761776.464 8  86307877.815 6        50.000 8
        40.000 6
  22693530.110 7  22693542.890 5 119255311.531 7  92926216.954 5        45.000 7
        31.000 5
  20230432.706 9  20230441.826 8 106311641.517 9  82840239.854 8        54.000 9
        50.000 8
  22277044.252 7  22277053.952 5 117066658.961 7  91220773.589 5        45.000 7
        34.000 5
  22401233.032 8  22401241.572 6 117719274.194 8  91729304.763 6        49.000 8
        36.000 6
  23393532.704 6  23393560.784 3 122933825.794 6  95792586.919 3        37.000 6
        18.000 3
 13 10 21  5 24 38.0000000  0  7G01G04G13G17G20G23G28
  24600649.296 6  24600665.016 3 129277284.101 6 100735546.702 3        37.000 6
        20.000 3
  21076995.600 8  21077006.120 6 110760360.287 8  86306774.311 6        50.000 8
        41.000 6
  22693034.330 7  22693046.570 5 119252704.663 7  92924185.638 5        45.000 7
        30.000 5
  20230415.766 9  20230424.686 8 106311551.036 9  82840169.354 8        54.000 9
        50.000 8
  22277596.632 7  22277605.832 5 117069558.256 7  91223032.776 5        45.000 7
        34.000 5
  22401091.592 8  22401100.032 5 117718529.934 8  91728724.818 5        49.000 8
        35.000 5
  23394148.964 6  23394176.664 3 122937064.848 6  95795110.818 3        37.000 6
        18.000 3
 13 10 21  5 24 39.0000000  0  7G01G04G13G17G20G23G28
  24601121.656 6  24601137.776 3 129279768.382 6 100737482.510 3        37.000 6
        20.000 3
  21076726.800 8  21076737.460 6 110758948.963 8  86305674.574 6        50.000 8
        41.000 6
  22692539.330 7  22692551.510 5 119250102.756 7  92922158.192 5        45.000 7
        30.000 5
  20230399.426 9  20230408.526 8 106311465.731 9  82840102.878 8        54.000 9
        50.000 8
  22278148.752 7  22278158.292 5 117072462.394 7  91225295.738 5        46.000 7
        33.000 5
  22400950.772 8  22400959.332 5 117717790.842 8  91728148.909 5        49.000 8
        35.000 5
  23394766.504 6  23394794.104 2 122940308.637 6  95797638.411 2        38.000 6
        17.000 2
 13 10 21  5 24 40.0000000  0  7G01G04G13G17G20G23G28
  24601594.236 6  24601610.196 3 129282250.929 6 100739416.960 3        37.000 6
        20.000 3
  21076458.280 8  21076468.620 6 110757536.087 8  86304573.635 6        50.000 8
        41.000 6
  22692043.910 7  22692055.570 5 119247499.390 7  92920129.608 5        45.000 7
        30.000 5
  20230382.846 9  20230392.266 8 106311379.175 9  82840035.436 8        54.000 9
        50.000 8
  22278701.132 7  22278710.912 5 117075364.952 7  91227557.470 5        45.000 7
        33.000 5
  22400809.692 8  22400818.472 5 117717050.510 8  91727572.031 5        49.000 8
        35.000 5
  23395383.624 6  23395411.244 2 122943550.771 6  95800164.688 2        37.000 6
        17.000 2
 13 10 21  5 24 41.0000000  0  7G01G04G13G17G20G23G28
  24602066.756 6  24602082.616 3 129284734.575 6 100741352.249 3        37.000 6
        21.000 3
  21076189.520 8  21076199.540 6 110756124.487 8  86303473.692 6        50.000 8
        40.000 6
  22691548.610 7  22691560.930 5 119244897.438 7  92918102.129 5        45.000 7
        31.000 5
  20230366.566 9  20230376.106 8 106311294.238 9  82839969.254 8        54.000 9
        50.000 8
  22279253.672 7  22279263.772 5 117078268.804 7  91229820.213 5        46.000 7
        34.000 5
  22400669.312 8  22400677.952 5 117716311.788 8  91726996.414 5        48.000 8
        35.000 5
  23396000.544 6  23396028.624 3 122946794.050 6  95802691.863 3        37.000 6
        18.000 3
 13 10 21  5 24 42.0000000  0  7G01G04G13G17G20G23G28
  24602538.776 6  24602554.376 3 129287214.271 6 100743284.488 3        37.000 6
        20.000 3
  21075920.300 8  21075930.560 6 110754709.143 8  86302370.824 6        51.000 8
        40.000 6
  22691053.230 7  22691064.790 5 119242291.839 7  92916071.790 5        45.000 7
        30.000 5
  20230349.926 9  20230359.326 8 106311205.901 9  82839900.415 8        55.000 9
        50.000 8
  22279806.192 7  22279815.112 5 117081168.908 7  91232080.029 5        45.000 7
        34.000 5
  22400527.892 8  22400536.912 6 117715569.667 8  91726418.137 6        48.000 8
        36.000 6
  23396617.044 6  23396644.924 3 122950033.422 6  95805216.020 3        37.000 6
        19.000 3
 13 10 21  5 24 43.0000000  0  7G01G04G13G17G20G23G28
  24603011.576 6  24603027.476 3 129289699.146 6 100745220.771 3        37.000 6
        20.000 3
  21075651.860 8  21075662.440 6 110753299.125 8  86301272.111 6        51.000 8
        40.000 6
  22690557.890 7  22690570.110 5 119239691.671 7  92914045.696 5        45.000 7
        31.000 5
  20230334.226 9  20230343.486 8 106311123.184 9  82839835.959 8        55.000 9
        50.000 8
  22280358.592 7  22280368.072 5 117084074.301 7  91234343.978 5        45.000 7
        33.000 5
  22400387.652 8  22400396.292 6 117714833.203 8  91725844.267 6        48.000 8
        36.000 6
  23397234.544 6  23397262.704 3 122953278.022 6  95807744.236 3        38.000 6
        18.000 3
 13 10 21  5 24 44.0000000  0  7G01G04G13G17G20G23G28
  24603484.156 6  24603499.076 3 129292179.628 6 100747153.594 3        37.000 6
        20.000 3
  21075382.820 8  21075392.900 6 110751884.932 8  86300170.148 6        51.000 8
        40.000 6
  22690062.290 7  22690074.590 5 119237087.460 7  92912016.448 5        45.000 7
        30.000 5
  20230317.586 9  20230326.866 8 106311036.668 9  82839768.545 8        55.000 9
        50.000 8
  22280911.132 7  22280920.272 5 117086975.554 7  91236604.692 5        44.000 7
        34.000 5
  22400246.912 8  22400255.372 5 117714092.900 8  91725267.407 5        48.000 8
        35.000 5
  23397851.284 6  23397879.364 2 122956518.367 6  95810269.136 2        38.000 6
        17.000 2
 13 10 21  5 24 45.0000000  0  7G01G04G13G17G20G23G28
  24603955.596 6  24603971.896 3 129294662.853 6 100749088.584 3        37.000 6
        19.000 3
  21075114.680 8  21075124.920 6 110750473.660 8  86299070.460 6        51.000 8
        40.000 6
  22689567.510 7  22689579.850 4 119234486.270 7  92909989.541 4        45.000 7
        29.000 4
  20230301.886 9  20230311.006 8 106310953.365 9  82839703.628 8        55.000 9
        50.000 8
  22281463.472 7  22281473.232 5 117089879.718 7  91238867.677 5        44.000 7
        34.000 5
  22400106.552 8  22400115.252 6 117713355.847 8  91724693.085 6        49.000 8
        36.000 6
  23398468.724 6  23398496.424 3 122959761.504 6  95812796.199 3        38.000 6
        18.000 3
 13 10 21  5 24 46.0000000  0  7G01G04G13G17G20G23G28
  24604429.096 6  24604443.936 3 129297144.827 6 100751022.600 3        38.000 6
        19.000 3
  21074845.560 8  21074855.960 6 110749061.314 8  86297969.933 6        50.000 8
        40.000 6
  22689072.350 7  22689084.410 5 119231884.115 7  92907961.898 5        45.000 7
        31.000 5
  20230286.106 9  20230294.966 8 106310869.321 9  82839638.145 8        55.000 9
        50.000 8
  22282015.712 7  22282025.632 5 117092782.765 7  91241129.794 5        45.000 7
        34.000 5
  22399966.152 8  22399974.712 5 117712618.053 8  91724118.180 5        49.000 8
        35.000 5
  23399085.424 6  23399113.424 2 122963003.412 6  95815322.322 2        37.000 6
        17.000 2
 13 10 21  5 24 47.0000000  0  7G01G04G13G17G20G23G28
  24604901.736 6  24604916.676 3 129299628.656 6 100752958.027 3        37.000 6
        20.000 3
  21074577.000 8  21074587.360 6 110747651.015 8  86296871.001 6        50.000 8
        40.000 6
  22688577.510 7  22688589.930 5 119229284.121 7  92905935.943 5        45.000 7
        30.000 5
  20230270.446 9  20230279.566 8 106310787.663 9  82839574.516 8        55.000 9
        50.000 8
  22282568.612 7  22282578.632 5 117095687.898 7  91243393.536 5        45.000 7
        34.000 5
  22399826.372 8  22399834.752 5 117711882.634 8  91723545.133 5        48.000 8
        35.000 5
  23399702.704 6  23399730.544 3 122966247.306 6  95817849.998 3        38.000 6
        18.000 3
 13 10 21  5 24 48.0000000  0  7G01G04G13G17G20G23G28
  24605372.716 6  24605389.136 3 129302109.461 6 100754891.126 3        37.000 6
        21.000 3
  21074308.120 8  21074318.300 6 110746237.876 8  86295769.851 6        50.000 8
        40.000 6
  22688082.170 7  22688094.150 5 119226681.420 7  92903907.866 5        45.000 7
        30.000 5
  20230254.566 9  20230263.666 8 106310703.512 9  82839508.941 8        55.000 9
        50.000 8
  22283120.872 7  22283130.572 5 117098590.154 7  91245655.034 5        46.000 7
        34.000 5
  22399686.152 8  22399694.032 5 117711144.714 8  91722970.135 5        48.000 8
        35.000 5
  23400319.904 6  23400347.884 2 122969488.194 6  95820375.325 2        37.000 6
        17.000 2
 13 10 21  5 24 49.0000000  0  7G01G04G13G17G20G23G28
  24605845.756 6  24605861.816 3 129304593.209 6 100756826.522 3        37.000 6
        21.000 3
  21074039.820 8  21074050.120 6 110744827.837 8  86294671.124 6        50.000 8
        40.000 6
  22687587.370 7  22687599.590 5 119224081.899 7  92901882.271 5        45.000 7
        30.000 5
  20230239.006 9  20230247.906 8 106310622.752 9  82839446.014 8        54.000 9
        50.000 8
  22283673.712 7  22283683.572 5 117101495.509 7  91247918.940 5        45.000 7
        33.000 5
  22399546.192 8  22399554.572 5 117710410.236 8  91722397.814 5        48.000 8
        35.000 5
  23400937.084 6  23400965.064 2 122972732.006 6  95822902.930 2        38.000 6
        17.000 2
 13 10 21  5 24 50.0000000  0  7G01G04G13G17G20G23G28
  24606319.176 6  24606334.416 3 129307077.188 6 100758762.101 3        37.000 6
        21.000 3
  21073771.480 8  21073781.820 6 110743418.197 8  86293572.703 6        50.000 8
        40.000 6
  22687092.790 7  22687104.770 5 119221482.916 7  92899857.096 5        45.000 7
        30.000 5
  20230223.706 9  20230233.166 8 106310542.750 9  82839383.670 8        54.000 9
        50.000 8
  22284226.832 7  22284236.172 5 117104401.273 7  91250183.172 5        45.000 7
        33.000 5
  22399406.432 8  22399414.772 5 117709676.486 8  91721826.065 5        48.000 8
        35.000 5
  23401554.424 6  23401582.184 2 122975976.252 6  95825430.912 2        37.000 6
        16.000 2
 13 10 21  5 24 51.0000000  0  7G01G04G13G17G20G23G28
  24606790.576 6  24606806.496 3 129309558.393 6 100760695.511 3        37.000 6
        21.000 3
  21073503.160 8  21073513.260 6 110742006.048 8  86292472.327 6        50.000 8
        40.000 6
  22686597.850 7  22686609.610 5 119218881.510 7  92897830.039 5        45.000 7
        31.000 5
  20230208.046 9  20230217.206 8 106310460.563 9  82839319.633 8        54.000 9
        50.000 8
  22284779.572 7  22284788.712 5 117107304.504 7  91252445.424 5        45.000 7
        33.000 5
  22399266.332 8  22399274.952 6 117708940.548 8  91721252.610 6        48.000 8
        36.000 6
  23402170.924 6  23402198.944 2 122979217.758 6  95827956.728 2        37.000 6
        17.000 2
 13 10 21  5 24 52.0000000  0  7G01G04G13G17G20G23G28
  24607263.076 6  24607279.076 3 129312042.251 6 100762630.995 3        37.000 6
        20.000 3
  21073234.480 8  21073245.060 6 110740596.729 8  86291374.161 6        50.000 8
        40.000 6
  22686103.590 7  22686115.170 5 119216283.069 7  92895805.290 5        45.000 7
        31.000 5
  20230192.946 9  20230202.206 8 106310381.530 9  82839258.049 8        54.000 9
        50.000 8
  22285332.512 7  22285341.892 5 117110210.570 7  91254709.893 5        46.000 7
        33.000 5
  22399127.052 8  22399135.652 5 117708207.759 8  91720681.612 5        48.000 8
        35.000 5
  23402788.564 6  23402816.324 3 122982461.991 6  95830484.665 3        37.000 6
        18.000 3
 13 10 21  5 24 53.0000000  0  7G01G04G13G17G20G23G28
  24607735.616 6  24607750.836 3 129314523.266 6 100764564.254 3        37.000 6
        21.000 3
  21072965.860 8  21072975.800 6 110739184.693 8  86290273.883 6        50.000 8
        40.000 6
  22685608.510 7  22685620.430 5 119213682.028 7  92893778.509 5        45.000 7
        31.000 5
  20230177.586 9  20230186.226 8 106310300.122 9  82839194.614 8        54.000 9
        50.000 8
  22285885.032 7  22285894.252 5 117113113.908 7  91256972.231 5        46.000 7
        33.000 5
  22398986.832 8  22398995.652 5 117707472.624 8  91720108.778 5        48.000 8
        35.000 5
  23403404.844 6  23403433.464 2 122985703.378 6  95833010.366 2        38.000 6
        17.000 2
 13 10 21  5 24 54.0000000  0  7G01G04G13G17G20G23G28
  24608208.116 6  24608223.576 3 129317006.715 6 100766499.408 3        37.000 6
        21.000 3
  21072697.640 8  21072708.120 6 110737775.332 8  86289175.674 6        50.000 8
        40.000 6
  22685113.850 7  22685126.150 5 119211083.752 7  92891753.886 5        45.000 7
        31.000 5
  20230162.806 9  20230171.486 8 106310221.719 9  82839133.519 8        54.000 9
        50.000 8
  22286437.792 7  22286447.032 5 117116019.922 7  91259236.657 5        46.000 7
        33.000 5
  22398847.872 8  22398856.532 5 117706740.477 8  91719538.276 5        48.000 8
        35.000 5
  23404022.764 6  23404050.564 2 122988947.361 6  95835538.075 2        38.000 6
        16.000 2
 13 10 21  5 24 55.0000000  0  7G01G04G13G17G20G23G28
  24608681.496 6  24608696.136 3 129319490.518 6 100768434.831 3        37.000 6
        21.000 3
  21072429.360 8  21072440.080 6 110736366.470 8  86288077.869 6        51.000 8
        40.000 6
  22684619.330 7  22684631.970 5 119208486.088 7  92889729.733 5        45.000 7
        31.000 5
  20230147.826 9  20230156.766 8 106310144.129 9  82839073.054 8        54.000 9
        50.000 8
  22286990.992 7  22287000.212 5 117118926.419 7  91261501.460 5        46.000 7
        34.000 5
  22398708.832 8  22398716.672 5 117706009.168 8  91718968.433 5        48.000 8
        35.000 5
  23404639.744 6  23404667.704 2 122992191.697 6  95838066.086 2        37.000 6
        16.000 2
 13 10 21  5 24 56.0000000  0  7G01G04G13G17G20G23G28
  24609153.436 6  24609168.276 3 129321972.305 6 100770368.673 3        38.000 6
        21.000 3
  21072161.040 8  21072171.220 6 110734955.801 8  86286978.648 6        50.000 8
        40.000 6
  22684125.290 7  22684137.070 5 119205886.746 7  92887704.277 5        44.000 7
        30.000 5
  20230133.066 8  20230141.946 8 106310065.046 8  82839011.435 8        52.000 8
        50.000 8
  22287543.392 7  22287552.692 5 117121831.114 7  91263764.858 5        44.000 7
        34.000 5
  22398569.072 8  22398577.912 6 117705276.377 8  91718397.422 6        48.000 8
        36.000 6
  23405257.264 6  23405284.624 2 122995434.093 6  95840592.587 2        37.000 6
        17.000 2
 13 10 21  5 24 57.0000000  0  7G01G04G13G17G20G23G28
  24609625.636 6  24609641.016 3 129324454.784 6 100772303.072 3        37.000 6
        21.000 3
  21071892.920 8  21071903.360 6 110733546.009 8  86285880.109 6        48.000 8
        38.000 6
  22683630.150 7  22683642.610 5 119203288.409 7  92885679.611 5        44.000 7
        30.000 5
  20230118.286 8  20230127.046 8 106309987.237 8  82838950.805 8        52.000 8
        49.000 8
  22288096.712 7  22288105.572 5 117124736.702 7  91266028.955 5        44.000 7
        32.000 5
  22398430.072 7  22398438.312 5 117704544.831 7  91717827.391 5        46.000 7
        35.000 5
  23405874.584 6  23405901.924 3 122998677.280 6  95843119.720 3        36.000 6
        18.000 3
 13 10 21  5 24 58.0000000  0  7G01G04G13G17G20G23G28
  24610098.256 6  24610113.816 3 129326939.667 6 100774239.349 3        37.000 6
        21.000 3
  21071624.840 8  21071635.460 6 110732138.776 8  86284783.564 6        48.000 8
        39.000 6
  22683136.510 7  22683148.750 5 119200692.724 7  92883657.006 5        44.000 7
        30.000 5
  20230103.786 8  20230112.546 8 106309912.261 8  82838892.380 8        52.000 8
        50.000 8
  22288649.752 7  22288659.432 5 117127644.804 7  91268295.011 5        44.000 7
        33.000 5
  22398291.672 7  22398299.932 5 117703816.139 7  91717259.585 5        46.000 7
        35.000 5
  23406492.304 6  23406519.924 3 123001922.864 6  95845648.701 3        36.000 6
        18.000 3
 13 10 21  5 24 59.0000000  0  7G01G04G13G17G20G23G28
  24610571.656 6  24610586.476 3 129329424.129 6 100776175.289 3        38.000 6
        21.000 3
  21071357.180 8  21071367.820 6 110730731.346 8  86283686.870 6        48.000 8
        39.000 6
  22682642.830 7  22682655.210 5 119198096.960 7  92881634.345 5        44.000 7
        30.000 5
  20230089.646 8  20230098.746 8 106309837.427 8  82838834.068 8        53.000 8
        50.000 8
  22289203.012 7  22289212.572 5 117130552.725 7  91270560.917 5        44.000 7
        33.000 5
  22398152.652 7  22398161.432 5 117703087.589 7  91716691.886 5        47.000 7
        35.000 5
  23407109.204 6  23407137.084 3 123005168.171 6  95848177.479 3        36.000 6
        18.000 3
 13 10 21  5 25  0.0000000  0  7G01G04G13G17G20G23G28
  24611043.636 6  24611058.176 3 129331906.193 6 100778109.377 3        38.000 6
        22.000 3
  21071088.620 8  21071099.220 6 110729321.764 8  86282588.500 6        49.000 8
        39.000 6
  22682148.330 7  22682160.590 5 119195499.148 7  92879610.074 5        45.000 7
        31.000 5
  20230074.986 8  20230084.206 8 106309760.771 8  82838774.342 8        52.000 8
        50.000 8
  22289756.552 7  22289765.432 5 117133458.479 7  91272825.139 5        45.000 7
        33.000 5
  22398013.732 7  22398022.552 6 117702357.210 7  91716122.759 6        47.000 7
        36.000 6
  23407727.084 6  23407754.364 3 123008411.188 6  95850704.445 3        36.000 6
        18.000 3
 13 10 21  5 25  1.0000000  0  7G01G04G13G17G20G23G28
  24611516.756 6  24611531.236 3 129334389.531 6 100780044.458 3        37.000 6
        21.000 3
  21070820.980 8  21070831.600 6 110727913.512 8  86281491.159 6        49.000 8
        40.000 6
  22681654.210 7  22681666.810 5 119192902.788 7  92877586.950 5        45.000 7
        30.000 5
  20230060.706 8  20230069.646 8 106309685.800 8  82838715.924 8        53.000 8
        50.000 8
  22290309.192 7  22290318.852 5 117136365.562 7  91275090.392 5        46.000 7
        33.000 5
  22397875.392 8  22397883.712 5 117701628.531 8  91715554.959 5        48.000 8
        35.000 5
  23408344.184 6  23408371.884 2 123011655.410 6  95853232.358 2        37.000 6
        16.000 2
 13 10 21  5 25  2.0000000  0  7G01G04G13G17G20G23G28
  24611988.516 6  24612003.356 3 129336870.967 6 100781978.038 3        38.000 6
        22.000 3
  21070552.700 8  21070563.180 6 110726503.602 8  86280392.530 6        49.000 8
        40.000 6
  22681159.950 7  22681172.290 5 119190304.877 7  92875562.604 5        45.000 7
        30.000 5
  20230046.366 8  20230055.246 8 106309609.463 8  82838656.432 8        53.000 8
        50.000 8
  22290862.472 7  22290871.472 5 117139270.968 7  91277354.347 5        45.000 7
        33.000 5
  22397736.152 8  22397744.372 5 117700898.507 8  91714986.116 5        48.000 8
        35.000 5
  23408961.744 6  23408989.364 2 123014897.825 6  95855758.876 2        36.000 6
        16.000 2
 13 10 21  5 25  3.0000000  0  7G01G04G13G17G20G23G28
  24612460.976 6  24612475.996 3 129339353.191 6 100783912.226 3        37.000 6
        21.000 3
  21070284.540 8  21070294.820 6 110725094.632 8  86279294.635 6        49.000 8
        40.000 6
  22680666.310 7  22680677.910 5 119187708.046 7  92873539.104 5        45.000 7
        31.000 5
  20230031.986 8  20230041.066 8 106309534.429 8  82838597.970 8        52.000 8
        50.000 8
  22291415.692 7  22291424.732 5 117142177.339 7  91279619.050 5        46.000 7
        32.000 5
  22397597.632 8  22397605.952 5 117700169.759 8  91714418.263 5        48.000 8
        35.000 5
  23409578.704 6  23409605.684 2 123018141.135 6  95858286.102 2        37.000 6
        17.000 2
 13 10 21  5 25  4.0000000  0  7G01G04G13G17G20G23G28
  24612933.496 6  24612948.476 3 129341837.774 6 100785848.257 3        37.000 6
        21.000 3
  21070016.920 8  21070027.220 6 110723688.269 8  86278198.770 6        50.000 8
        40.000 6
  22680172.110 7  22680184.330 5 119185113.908 7  92871517.712 5        45.000 7
        31.000 5
  20230018.166 8  20230027.226 8 106309462.312 8  82838541.772 8        53.000 8
        50.000 8
  22291969.172 7  22291977.832 5 117145086.285 7  91281885.763 5        46.000 7
        34.000 5
  22397459.372 7  22397467.792 5 117699443.936 7  91713852.690 5        47.000 7
        35.000 5
  23410196.304 6  23410223.804 2 123021386.882 6  95860815.247 2        37.000 6
        17.000 2
 13 10 21  5 25  5.0000000  0  7G01G04G13G17G20G23G28
  24613406.456 6  24613421.596 3 129344322.011 6 100787784.015 3        37.000 6
        21.000 3
  21069748.960 8  21069759.780 6 110722281.704 8  86277102.747 6        50.000 8
        40.000 6
  22679678.650 7  22679690.990 5 119182519.671 7  92869496.242 5        46.000 7
        31.000 5
  20230004.506 8  20230013.666 8 106309390.312 8  82838485.667 8        53.000 8
        50.000 8
  22292522.572 7  22292531.652 5 117147994.995 7  91284152.292 5        45.000 7
        33.000 5
  22397321.552 8  22397329.672 5 117698718.237 8  91713287.206 5        48.000 8
        35.000 5
  23410813.764 6  23410841.064 2 123024632.279 6  95863344.070 2        36.000 6
        16.000 2
 13 10 21  5 25  6.0000000  0  7G01G04G13G17G20G23G28
  24613878.716 6  24613894.176 3 129346806.242 6 100789719.780 3        37.000 6
        21.000 3
  21069481.720 8  21069492.160 6 110720875.380 8  86276006.912 6        50.000 8
        40.000 6
  22679184.610 7  22679196.950 5 119179925.811 7  92867475.066 5        46.000 7
        30.000 5
  20229990.866 8  20230000.126 8 106309318.889 8  82838430.018 8        53.000 8
        50.000 8
  22293076.052 7  22293085.192 5 117150903.967 7  91286419.015 5        45.000 7
        33.000 5
  22397183.112 7  22397191.192 6 117697993.126 7  91712722.191 6        47.000 7
        36.000 6
  23411430.704 6  23411459.024 2 123027877.828 6  95865873.019 2        36.000 6
        16.000 2
 13 10 21  5 25  7.0000000  0  7G01G04G13G17G20G23G28
  24614351.156 6  24614367.356 3 129349289.283 6 100791654.621 3        37.000 6
        21.000 3
  21069214.040 8  21069224.360 6 110719467.940 8  86274910.210 6        50.000 8
        40.000 6
  22678690.930 7  22678703.330 5 119177330.954 7  92865453.107 5        45.000 7
        31.000 5
  20229977.166 8  20229986.346 8 106309246.687 8  82838373.753 8        53.000 8
        50.000 8
  22293629.312 7  22293638.892 5 117153811.809 7  91288684.862 5        45.000 7
        33.000 5
  22397045.212 7  22397053.452 5 117697267.243 7  91712156.566 5        47.000 7
        35.000 5
  23412048.604 6  23412076.144 3 123031122.127 6  95868400.976 3        36.000 6
        18.000 3
 13 10 21  5 25  8.0000000  0  7G01G04G13G17G20G23G28
  24614824.136 6  24614839.056 3 129351771.383 6 100793588.740 3        37.000 6
        21.000 3
  21068945.760 8  21068956.560 6 110718059.884 8  86273813.030 6        50.000 8
        40.000 6
  22678197.290 7  22678209.290 5 119174735.565 7  92863430.728 5        45.000 7
        31.000 5
  20229963.386 8  20229972.346 8 106309174.186 8  82838317.261 8        53.000 8
        50.000 8
  22294182.612 7  22294191.852 5 117156719.029 7  91290950.235 5        45.000 7
        33.000 5
  22396907.192 8  22396914.932 5 117696541.055 8  91711590.709 5        48.000 8
        35.000 5
  23412666.344 6  23412694.064 2 123034365.653 6  95870928.368 2        36.000 6
        16.000 2
 13 10 21  5 25  9.0000000  0  7G01G04G13G17G20G23G28
  24615296.876 6  24615311.876 3 129354255.107 6 100795524.118 3        37.000 6
        22.000 3
  21068678.420 8  21068688.680 6 110716653.534 8  86272717.169 6        50.000 8
        40.000 6
  22677703.570 7  22677715.810 5 119172142.019 7  92861409.799 5        45.000 7
        32.000 5
  20229949.966 8  20229959.066 8 106309103.745 8  82838262.372 8        53.000 8
        50.000 8
  22294736.052 7  22294745.072 5 117159627.946 7  91293216.921 5        45.000 7
        34.000 5
  22396769.172 8  22396777.232 5 117695816.927 8  91711026.455 5        48.000 8
        35.000 5
  23413283.404 6  23413311.664 2 123037610.811 6  95873457.024 2        37.000 6
        16.000 2
 13 10 21  5 25 10.0000000  0  7G01G04G13G17G20G23G28
  24615769.156 6  24615784.716 3 129356740.850 6 100797461.060 3        37.000 6
        21.000 3
  21068411.360 8  21068421.940 6 110715249.436 8  86271623.077 6        50.000 8
        40.000 6
  22677210.450 7  22677222.850 5 119169550.790 7  92859390.670 5        45.000 7
        31.000 5
  20229936.966 8  20229946.186 8 106309035.842 8  82838209.458 8        53.000 8
        50.000 8
  22295289.872 7  22295299.472 5 117162539.088 7  91295485.342 5        45.000 7
        33.000 5
  22396631.652 8  22396639.812 6 117695095.347 8  91710464.192 6        48.000 8
        36.000 6
  23413900.884 6  23413929.344 2 123040858.042 6  95875987.297 2        37.000 6
        17.000 2
 13 10 21  5 25 11.0000000  0  7G01G04G13G17G20G23G28
  24616241.636 6  24616257.376 3 129359223.457 6 100799395.551 3        37.000 6
        21.000 3
  21068143.280 8  21068154.080 6 110713842.419 8  86270526.699 6        50.000 8
        40.000 6
  22676716.690 7  22676729.190 5 119166956.810 7  92857369.389 5        45.000 7
        32.000 5
  20229923.706 8  20229932.766 8 106308965.377 8  82838154.555 8        53.000 8
        50.000 8
  22295843.592 7  22295852.972 5 117165447.314 7  91297751.490 5        46.000 7
        33.000 5
  22396494.312 8  22396502.392 5 117694371.196 8  91709899.918 5        48.000 8
        35.000 5
  23414518.584 6  23414546.944 3 123044102.282 6  95878515.240 3        37.000 6
        18.000 3
 13 10 21  5 25 12.0000000  0  7G01G04G13G17G20G23G28
  24616713.596 6  24616730.276 3 129361706.890 6 100801330.691 3        37.000 6
        20.000 3
  21067875.800 8  21067886.460 6 110712436.395 8  86269431.098 6        50.000 8
        41.000 6
  22676223.410 7  22676236.010 5 119164363.912 7  92855348.955 5        45.000 7
        31.000 5
  20229910.606 9  20229919.546 8 106308896.213 9  82838100.659 8        54.000 9
        50.000 8
  22296396.832 7  22296406.292 5 117168356.505 7  91300018.387 5        45.000 7
        33.000 5
  22396356.432 8  22396364.532 5 117693648.342 8  91709336.657 5        49.000 8
        35.000 5
  23415136.984 6  23415164.404 3 123047347.356 6  95881043.809 3        37.000 6
        18.000 3
 13 10 21  5 25 13.0000000  0  7G01G04G13G17G20G23G28
  24617187.276 6  24617202.916 3 129364191.778 6 100803266.957 3        36.000 6
        21.000 3
  21067608.580 8  21067619.380 6 110711031.981 8  86268336.754 6        50.000 8
        40.000 6
  22675730.310 7  22675742.550 5 119161772.746 7  92853329.865 5        45.000 7
        31.000 5
  20229897.646 9  20229907.046 8 106308829.004 9  82838048.286 8        54.000 9
        50.000 8
  22296950.732 7  22296960.172 5 117171267.321 7  91302286.558 5        45.000 7
        33.000 5
  22396219.532 8  22396227.452 5 117692927.467 8  91708774.938 5        49.000 8
        35.000 5
  23415753.804 6  23415781.684 3 123050593.938 6  95883573.593 3        37.000 6
        19.000 3
 13 10 21  5 25 14.0000000  0  7G01G04G13G17G20G23G28
  24617659.216 6  24617675.096 3 129366673.119 6 100805200.457 3        37.000 6
        21.000 3
  21067340.840 8  21067351.460 6 110709624.220 8  86267239.802 6        51.000 8
        40.000 6
  22675236.270 7  22675249.170 5 119159178.343 7  92851308.260 5        45.000 7
        31.000 5
  20229884.286 9  20229893.186 8 106308758.778 9  82837993.568 8        54.000 9
        50.000 8
  22297504.252 7  22297513.652 5 117174174.777 7  91304552.104 5        44.000 7
        33.000 5
  22396081.692 8  22396089.312 5 117692203.554 8  91708210.848 5        49.000 8
        35.000 5
  23416372.244 6  23416399.024 2 123053837.039 6  95886100.657 2        37.000 6
        17.000 2
 13 10 21  5 25 15.0000000  0  7G01G04G13G17G20G23G28
  24618131.996 6  24618147.296 3 129369155.858 6 100807135.065 3        37.000 6
        21.000 3
  21067073.460 8  21067084.020 6 110708218.059 8  86266144.094 6        51.000 8
        40.000 6
  22674743.310 7  22674755.850 5 119156585.656 7  92849287.997 5        45.000 7
        31.000 5
  20229871.226 9  20229880.126 8 106308690.481 9  82837940.348 8        54.000 9
        50.000 8
  22298057.672 7  22298066.952 5 117177083.855 7  91306818.922 5        44.000 7
        33.000 5
  22395944.232 8  22395952.132 5 117691481.593 8  91707648.286 5        48.000 8
        35.000 5
  23416989.564 6  23417016.124 3 123057081.624 6  95888628.836 3        37.000 6
        18.000 3
 13 10 21  5 25 16.0000000  0  7G01G04G13G17G20G23G28
  24618604.176 6  24618620.096 3 129371640.391 6 100809071.061 3        36.000 6
        22.000 3
  21066806.080 8  21066816.240 6 110706813.882 8  86265049.930 6        51.000 8
        40.000 6
  22674250.110 7  22674262.770 5 119153995.075 7  92847269.367 5        45.000 7
        31.000 5
  20229858.566 9  20229867.326 8 106308624.499 9  82837888.931 8        54.000 9
        50.000 8
  22298611.692 7  22298621.292 5 117179994.887 7  91309087.252 5        45.000 7
        33.000 5
  22395807.452 8  22395815.472 5 117690761.943 8  91707087.525 5        49.000 8
        35.000 5
  23417606.824 6  23417634.464 2 123060328.116 6  95891158.525 2        37.000 6
        17.000 2
 13 10 21  5 25 17.0000000  0  7G01G04G13G17G20G23G28
  24619077.076 6  24619092.716 3 129374122.928 6 100811005.516 3        36.000 6
        21.000 3
  21066538.260 8  21066549.060 6 110705407.845 8  86263954.323 6        52.000 8
        41.000 6
  22673756.970 7  22673769.370 5 119151402.740 7  92845249.376 5        46.000 7
        32.000 5
  20229845.966 9  20229854.666 8 106308557.003 9  82837836.337 8        54.000 9
        50.000 8
  22299165.692 7  22299175.012 5 117182904.038 7  91311354.125 5        45.000 7
        33.000 5
  22395670.432 8  22395677.732 5 117690040.760 8  91706525.566 5        48.000 8
        35.000 5
  23418224.524 6  23418251.944 3 123063572.570 6  95893686.624 3        37.000 6
        18.000 3
 13 10 21  5 25 18.0000000  0  7G01G04G13G17G20G23G28
  24619550.396 6  24619566.076 3 129376610.065 6 100812943.543 3        36.000 6
        21.000 3
  21066271.440 8  21066282.440 6 110704006.551 8  86262862.409 6        52.000 8
        41.000 6
  22673264.350 7  22673277.210 5 119148815.274 7  92843233.174 5        45.000 7
        31.000 5
  20229834.026 9  20229843.026 8 106308494.571 9  82837787.688 8        55.000 9
        50.000 8
  22299719.852 7  22299729.572 5 117185817.939 7  91313624.696 5        45.000 7
        33.000 5
  22395533.752 8  22395541.552 5 117689324.667 8  91705967.582 5        48.000 8
        35.000 5
  23418843.264 6  23418870.424 3 123066821.601 6  95896218.301 3        38.000 6
        18.000 3
 13 10 21  5 25 19.0000000  0  7G01G04G13G17G20G23G28
  24620022.456 6  24620038.576 3 129379093.096 6 100814878.365 3        36.000 6
        21.000 3
  21066004.220 8  21066014.900 6 110702601.514 8  86261767.582 6        51.000 8
        40.000 6
  22672771.170 7  22672784.210 5 119146224.192 7  92841214.162 5        45.000 7
        31.000 5
  20229821.766 9  20229830.486 8 106308428.707 9  82837736.368 8        55.000 9
        50.000 8
  22300273.352 7  22300283.092 5 117188728.073 7  91315892.332 5        45.000 7
        33.000 5
  22395396.792 8  22395404.772 5 117688605.150 8  91705406.922 5        48.000 8
        35.000 5
  23419460.564 6  23419488.044 2 123070066.774 6  95898746.992 2        37.000 6
        17.000 2
 13 10 21  5 25 20.0000000  0  7G01G04G13G17G20G23G28
  24620495.836 6  24620510.916 3 129381577.755 6 100816814.472 3        36.000 6
        21.000 3
  21065737.340 8  21065747.960 6 110701198.149 8  86260674.048 6        51.000 8
        40.000 6
  22672278.930 7  22672291.550 5 119143634.868 7  92839196.513 5        45.000 7
        31.000 5
  20229809.086 9  20229818.206 8 106308364.866 9  82837686.622 8        55.000 9
        50.000 8
  22300827.532 7  22300836.932 5 117191639.875 7  91318161.273 5        45.000 7
        34.000 5
  22395260.212 8  22395268.292 5 117687887.643 8  91704847.832 5        48.000 8
        35.000 5
  23420077.904 6  23420105.964 3 123073313.572 6  95901276.931 3        37.000 6
        18.000 3
 13 10 21  5 25 21.0000000  0  7G01G04G13G17G20G23G28
  24620967.756 6  24620983.656 3 129384061.430 6 100818749.811 3        36.000 6
        21.000 3
  21065469.920 8  21065480.880 6 110699794.083 8  86259579.970 6        51.000 8
        40.000 6
  22671786.010 7  22671798.970 5 119141044.971 7  92837178.417 5        46.000 7
        31.000 5
  20229797.006 9  20229806.326 8 106308300.652 9  82837636.585 8        55.000 9
        50.000 8
  22301381.772 7  22301390.832 5 117194550.986 7  91320429.671 5        45.000 7
        34.000 5
  22395124.032 8  22395131.772 5 117687169.763 8  91704288.443 5        48.000 8
        35.000 5
  23420695.604 6  23420723.524 2 123076559.497 6  95903806.186 2        37.000 6
        16.000 2
 13 10 21  5 25 22.0000000  0  7G01G04G13G17G20G23G28
  24621440.816 6  24621456.776 3 129386544.268 6 100820684.484 3        36.000 6
        21.000 3
  21065202.820 8  21065213.520 6 110698389.254 8  86258485.309 6        51.000 8
        41.000 6
  22671292.930 7  22671305.750 5 119138454.440 7  92835159.828 5        46.000 7
        31.000 5
  20229784.806 9  20229793.686 8 106308236.018 9  82837586.221 8        54.000 9
        50.000 8
  22301935.092 7  22301944.812 5 117197461.337 7  91322697.476 5        45.000 7
        33.000 5
  22394987.392 8  22394994.852 5 117686451.479 8  91703728.742 5        48.000 8
        35.000 5
  23421313.164 6  23421340.964 2 123079804.573 6  95906334.782 2        38.000 6
        17.000 2
 13 10 21  5 25 23.0000000  0  7G01G04G13G17G20G23G28
  24621913.856 6  24621929.256 3 129389030.323 6 100822621.676 3        36.000 6
        21.000 3
  21064936.120 8  21064947.000 6 110696987.923 8  86257393.358 6        51.000 8
        40.000 6
  22670800.650 7  22670813.570 5 119135867.473 7  92833144.022 5        46.000 7
        32.000 5
  20229773.126 9  20229782.346 8 106308175.170 9  82837538.806 8        55.000 9
        50.000 8
  22302489.872 7  22302499.212 5 117200375.120 7  91324967.950 5        45.000 7
        33.000 5
  22394850.912 8  22394859.072 5 117685736.967 8  91703171.984 5        48.000 8
        35.000 5
  23421931.364 6  23421959.224 3 123083052.942 6  95908865.930 3        37.000 6
        18.000 3
 13 10 21  5 25 24.0000000  0  7G01G04G13G17G20G23G28
  24622386.416 6  24622402.356 3 129391514.281 6 100824557.228 3        36.000 6
        21.000 3
  21064668.840 8  21064679.500 6 110695584.657 8  86256299.911 6        51.000 8
        41.000 6
  22670308.090 7  22670320.550 5 119133278.722 7  92831126.823 5        46.000 7
        31.000 5
  20229761.206 9  20229770.326 8 106308112.745 9  82837490.158 8        55.000 9
        50.000 8
  22303043.932 7  22303053.632 5 117203286.996 7  91327236.946 5        45.000 7
        33.000 5
  22394714.572 7  22394722.872 5 117685020.911 7  91702614.020 5        47.000 7
        35.000 5
  23422548.944 6  23422577.424 2 123086299.345 6  95911395.547 2        37.000 6
        16.000 2
 13 10 21  5 25 25.0000000  0  7G01G04G13G17G20G23G28
  24622858.616 6  24622874.576 3 129393995.803 6 100826490.886 3        36.000 6
        20.000 3
  21064401.360 8  21064412.020 6 110694179.146 8  86255204.711 6        51.000 8
        41.000 6
  22669815.630 7  22669827.990 5 119130687.808 7  92829107.930 5        46.000 7
        31.000 5
  20229749.106 9  20229758.066 8 106308048.402 9  82837440.021 8        54.000 9
        50.000 8
  22303597.572 7  22303607.152 5 117206196.607 7  91329504.171 5        45.000 7
        34.000 5
  22394578.212 7  22394585.632 5 117684302.897 7  91702054.533 5        47.000 7
        35.000 5
  23423166.584 6  23423194.724 2 123089543.310 6  95913923.255 2        37.000 6
        16.000 2
 13 10 21  5 25 26.0000000  0  7G01G04G13G17G20G23G28
  24623332.756 6  24623348.196 3 129396483.703 6 100828429.496 3        36.000 6
        20.000 3
  21064135.020 8  21064146.180 6 110692780.192 8  86254114.613 6        51.000 8
        40.000 6
  22669323.290 7  22669335.930 5 119128103.579 7  92827094.255 5        46.000 7
        32.000 5
  20229737.826 9  20229747.186 8 106307990.925 9  82837395.242 8        54.000 9
        50.000 8
  22304152.712 7  22304162.092 5 117209112.760 7  91331776.504 5        45.000 7
        33.000 5
  22394442.652 8  22394450.792 5 117683591.804 8  91701500.437 5        48.000 8
        35.000 5
  23423785.204 6  23423813.484 2 123092793.749 6  95916455.987 2        36.000 6
        17.000 2
 13 10 21  5 25 27.0000000  0  7G01G04G13G17G20G23G28
  24623804.716 6  24623820.256 3 129398963.252 6 100830361.604 3        37.000 6
        21.000 3
  21063867.700 8  21063878.080 6 110691373.041 8  86253018.134 6        51.000 8
        40.000 6
  22668830.130 7  22668842.950 5 119125511.291 7  92825074.296 5        46.000 7
        31.000 5
  20229725.786 9  20229734.506 8 106307925.605 9  82837344.339 8        54.000 9
        50.000 8
  22304705.732 7  22304715.192 5 117212020.734 7  91334042.454 5        45.000 7
        34.000 5
  22394306.092 8  22394313.952 5 117682872.852 8  91700940.216 5        48.000 8
        35.000 5
  23424402.384 6  23424430.004 2 123096035.856 6  95918982.272 2        36.000 6
        16.000 2
 13 10 21  5 25 28.0000000  0  7G01G04G13G17G20G23G28
  24624277.076 6  24624292.816 3 129401447.822 6 100832297.627 3        37.000 6
        21.000 3
  21063600.840 8  21063611.560 6 110689971.147 8  86251925.755 6        51.000 8
        40.000 6
  22668338.190 7  22668350.510 5 119122924.371 7  92823058.522 5        46.000 7
        32.000 5
  20229714.446 9  20229723.326 8 106307865.884 9  82837297.803 8        54.000 9
        50.000 8
  22305260.512 7  22305269.852 5 117214933.941 7  91336312.479 5        45.000 7
        34.000 5
  22394170.652 8  22394178.472 5 117682159.471 8  91700384.333 5        48.000 8
        35.000 5
  23425019.844 6  23425048.164 3 123099283.098 6  95921512.583 3        37.000 6
        18.000 3
 13 10 21  5 25 29.0000000  0  7G01G04G13G17G20G23G28
  24624750.576 6  24624766.416 3 129403935.674 6 100834236.221 3        36.000 6
        21.000 3
  21063334.560 8  21063345.240 6 110688572.687 8  86250836.047 6        51.000 8
        40.000 6
  22667846.810 7  22667858.950 5 119120340.990 7  92821045.509 5        46.000 7
        32.000 5
  20229703.446 9  20229712.946 8 106307809.897 9  82837254.183 8        54.000 9
        50.000 8
  22305815.292 7  22305825.132 5 117217850.575 7  91338585.183 5        45.000 7
        34.000 5
  22394034.832 8  22394043.212 5 117681449.881 8  91699831.409 5        49.000 8
        35.000 5
  23425638.704 6  23425666.944 3 123102533.655 6  95924045.465 3        37.000 6
        18.000 3
 13 10 21  5 25 30.0000000  0  7G01G04G13G17G20G23G28
  24625222.696 6  24625238.596 3 129406417.331 6 100836169.983 3        36.000 6
        20.000 3
  21063067.320 8  21063078.140 6 110687168.219 8  86249741.660 6        51.000 8
        40.000 6
  22667354.070 7  22667366.190 5 119117751.732 7  92819027.911 5        46.000 7
        32.000 5
  20229691.906 9  20229700.946 8 106307748.261 9  82837206.153 8        54.000 9
        50.000 8
  22306369.132 7  22306378.852 5 117220761.213 7  91340853.203 5        45.000 7
        34.000 5
  22393899.232 8  22393907.172 5 117680734.594 8  91699274.045 5        48.000 8
        35.000 5
  23426256.104 6  23426284.264 3 123105778.101 6  95926573.586 3        37.000 6
        18.000 3
 13 10 21  5 25 31.0000000  0  7G01G04G13G17G20G23G28
  24625695.696 6  24625711.956 3 129408903.787 6 100838107.476 3        36.000 6
        21.000 3
  21062800.860 8  21062812.020 6 110685768.779 8  86248651.197 6        51.000 8
        40.000 6
  22666861.730 7  22666874.070 5 119115167.615 7  92817014.324 5        46.000 7
        32.000 5
  20229681.066 9  20229690.206 8 106307691.990 9  82837162.303 8        54.000 9
        50.000 8
  22306923.752 7  22306933.932 5 117223676.830 7  91343125.112 5        45.000 7
        33.000 5
  22393764.212 8  22393771.852 5 117680024.683 8  91698720.872 5        48.000 8
        35.000 5
  23426874.764 6  23426902.904 2 123109027.439 6  95929105.470 2        37.000 6
        17.000 2
 13 10 21  5 25 32.0000000  0  7G01G04G13G17G20G23G28
  24626168.596 6  24626183.776 3 129411384.821 6 100840040.747 3        36.000 6
        21.000 3
  21062533.660 8  21062544.240 6 110684364.037 8  86247556.589 6        51.000 8
        40.000 6
  22666369.230 7  22666381.730 5 119112578.312 7  92814996.698 5        47.000 7
        31.000 5
  20229669.646 9  20229678.266 8 106307630.735 9  82837114.570 8        54.000 9
        50.000 8
  22307478.012 7  22307487.632 5 117226587.166 7  91345392.910 5        45.000 7
        34.000 5
  22393628.012 8  22393636.132 5 117679309.815 8  91698163.836 5        48.000 8
        35.000 5
  23427492.024 6  23427519.764 2 123112271.296 6  95931633.069 2        37.000 6
        16.000 2
 13 10 21  5 25 33.0000000  0  7G01G04G13G17G20G23G28
  24626640.336 6  24626656.036 3 129413869.851 6 100841977.126 3        37.000 6
        21.000 3
  21062267.240 8  21062277.780 6 110682963.512 8  86246465.279 6        51.000 8
        40.000 6
  22665876.690 7  22665889.370 5 119109993.347 7  92812982.439 5        46.000 7
        32.000 5
  20229658.886 9  20229667.786 8 106307574.043 9  82837070.394 8        54.000 9
        50.000 8
  22308032.692 7  22308042.112 5 117229501.704 7  91347663.976 5        46.000 7
        33.000 5
  22393492.912 8  22393500.672 5 117678599.489 8  91697610.341 5        48.000 8
        35.000 5
  23428109.964 6  23428138.384 2 123115519.321 6  95934163.965 2        37.000 6
        16.000 2
 13 10 21  5 25 34.0000000  0  7G01G04G13G17G20G23G28
  24627113.236 6  24627129.356 3 129416354.731 6 100843913.390 3        37.000 6
        21.000 3
  21062000.160 8  21062011.460 6 110681563.032 8  86245373.992 6        50.000 8
        41.000 6
  22665385.370 7  22665397.430 5 119107408.511 7  92810968.295 5        47.000 7
        31.000 5
  20229648.046 9  20229656.866 8 106307517.691 9  82837026.488 8        54.000 9
        50.000 8
  22308587.272 7  22308596.392 5 117232416.246 7  91349935.042 5        46.000 7
        33.000 5
  22393357.712 8  22393365.352 5 117677889.507 8  91697057.113 5        49.000 8
        35.000 5
  23428727.744 6  23428756.144 2 123118767.193 6  95936694.745 2        37.000 6
        16.000 2
 13 10 21  5 25 35.0000000  0  7G01G04G13G17G20G23G28
  24627586.536 6  24627602.596 3 129418840.460 6 100845850.319 3        36.000 6
        21.000 3
  21061734.120 8  21061745.220 6 110680163.590 8  86244283.528 6        51.000 8
        41.000 6
  22664893.430 7  22664905.930 5 119104824.857 7  92808955.056 5        47.000 7
        31.000 5
  20229637.586 9  20229646.706 8 106307462.736 9  82836983.666 8        54.000 9
        50.000 8
  22309141.852 7  22309151.432 5 117235331.850 7  91352206.935 5        45.000 7
        33.000 5
  22393222.812 8  22393230.312 5 117677180.905 8  91696504.952 5        48.000 8
        35.000 5
  23429346.344 6  23429374.524 2 123122016.024 6  95939226.261 2        37.000 6
        16.000 2
 13 10 21  5 25 36.0000000  0  7G01G04G13G17G20G23G28
  24628058.396 6  24628074.476 3 129421322.040 6 100847784.018 3        36.000 6
        22.000 3
  21061467.260 8  21061477.940 6 110678760.173 8  86243189.952 6        50.000 8
        41.000 6
  22664401.130 7  22664413.430 5 119102237.343 7  92806938.822 5        47.000 7
        31.000 5
  20229626.466 9  20229635.526 8 106307404.114 9  82836937.986 8        54.000 9
        50.000 8
  22309696.392 7  22309705.612 5 117238243.452 7  91354475.721 5        45.000 7
        34.000 5
  22393087.812 8  22393094.892 5 117676468.672 8  91695949.969 5        48.000 8
        35.000 5
  23429963.664 6  23429991.944 3 123125260.759 6  95941754.566 3        37.000 6
        18.000 3
 13 10 21  5 25 37.0000000  0  7G01G04G13G17G20G23G28
  24628532.396 6  24628547.696 3 129423809.046 6 100849721.951 3        36.000 6
        21.000 3
  21061200.960 8  21061211.860 6 110677362.354 8  86242100.745 6        50.000 8
        40.000 6
  22663909.870 7  22663922.150 5 119099655.552 7  92804927.045 5        46.000 7
        31.000 5
  20229616.546 9  20229625.846 8 106307351.445 9  82836896.946 8        54.000 9
        50.000 8
  22310251.332 7  22310260.592 5 117241160.649 7  91356748.852 5        45.000 7
        34.000 5
  22392952.972 8  22392960.852 6 117675762.392 8  91695399.625 6        48.000 8
        36.000 6
  23430581.644 6  23430610.244 2 123128510.951 6  95944287.169 2        37.000 6
        17.000 2
 13 10 21  5 25 38.0000000  0  7G01G04G13G17G20G23G28
  24629004.096 6  24629020.556 3 129426292.807 6 100851657.327 3        36.000 6
        21.000 3
  21060935.020 8  21060945.600 6 110675961.506 8  86241009.177 6        50.000 8
        40.000 6
  22663417.490 7  22663430.170 5 119097070.839 7  92802912.997 5        46.000 7
        31.000 5
  20229606.046 9  20229615.046 8 106307296.086 9  82836853.806 8        54.000 9
        50.000 8
  22310805.592 7  22310815.292 5 117244074.816 7  91359019.636 5        45.000 7
        34.000 5
  22392818.092 8  22392826.132 6 117675053.412 8  91694847.179 6        48.000 8
        36.000 6
  23431200.804 6  23431228.744 2 123131758.029 6  95946817.354 2        36.000 6
        17.000 2
 13 10 21  5 25 39.0000000  0  7G01G04G13G17G20G23G28
  24629477.236 6  24629493.036 3 129428774.855 6 100853591.386 3        36.000 6
        21.000 3
  21060667.960 8  21060678.400 6 110674559.097 8  86239916.397 6        51.000 8
        41.000 6
  22662925.610 7  22662937.970 5 119094484.694 7  92800897.824 5        46.000 7
        31.000 5
  20229595.386 9  20229604.146 8 106307239.476 9  82836809.695 8        54.000 9
        50.000 8
  22311360.032 7  22311369.332 5 117246987.390 7  91361289.174 5        45.000 7
        34.000 5
  22392683.252 8  22392690.852 5 117674343.197 8  91694293.768 5        48.000 8
        35.000 5
  23431817.844 6  23431845.864 2 123135003.347 6  95949346.126 2        37.000 6
        17.000 2
 13 10 21  5 25 40.0000000  0  7G01G04G13G17G20G23G28
  24629949.516 6  24629965.696 3 129431259.625 6 100855527.572 3        36.000 6
        22.000 3
  21060401.740 8  21060412.340 6 110673159.650 8  86238825.922 6        51.000 8
        40.000 6
  22662434.310 7  22662446.270 5 119091901.637 7  92798885.056 5        46.000 7
        32.000 5
  20229585.106 9  20229593.946 8 106307186.180 9  82836768.165 8        54.000 9
        50.000 8
  22311914.872 7  22311923.912 5 117249902.913 7  91363561.012 5        46.000 7
        34.000 5
  22392548.472 8  22392556.452 5 117673636.279 8  91693742.925 5        49.000 8
        35.000 5
  23432436.264 6  23432464.044 3 123138251.571 6  95951877.165 3        36.000 6
        18.000 3
 13 10 21  5 25 41.0000000  0  7G01G04G13G17G20G23G28
  24630422.676 6  24630438.676 3 129433745.144 6 100857464.351 3        36.000 6
        21.000 3
  21060135.700 8  21060146.460 6 110671761.083 8  86237736.132 6        51.000 8
        41.000 6
  22661942.910 7  22661955.790 5 119089319.562 7  92796873.057 5        45.000 7
        32.000 5
  20229575.226 9  20229583.926 8 106307134.100 9  82836727.585 8        54.000 9
        50.000 8
  22312469.492 7  22312479.192 5 117252819.336 7  91365833.546 5        46.000 7
        33.000 5
  22392414.192 8  22392421.772 5 117672930.598 8  91693193.049 5        49.000 8
        35.000 5
  23433054.644 6  23433082.244 2 123141500.502 6  95954408.787 2        36.000 6
        16.000 2
 13 10 21  5 25 42.0000000  0  7G01G04G13G17G20G23G28
  24630895.156 6  24630912.156 3 129436230.216 6 100859400.774 3        36.000 6
        21.000 3
  21059869.380 8  21059879.920 6 110670362.311 8  86236646.188 6        50.000 8
        40.000 6
  22661450.870 7  22661463.470 5 119086737.385 7  92794860.979 5        46.000 7
        31.000 5
  20229565.366 9  20229574.066 8 106307082.109 9  82836687.067 8        54.000 9
        50.000 8
  22313024.812 7  22313034.092 5 117255735.519 7  91368105.898 5        45.000 7
        34.000 5
  22392279.872 8  22392287.852 6 117672225.013 8  91692643.240 6        49.000 8
        36.000 6
  23433672.084 6  23433700.324 2 123144749.094 6  95956940.111 2        37.000 6
        17.000 2
 13 10 21  5 25 43.0000000  0  7G01G04G13G17G20G23G28
  24631368.116 6  24631384.396 3 129438715.152 6 100861337.078 3        36.000 6
        20.000 3
  21059603.080 8  21059614.000 6 110668963.573 8  86235556.258 6        50.000 8
        41.000 6
  22660960.350 7  22660972.470 5 119084155.344 7  92792849.002 5        45.000 7
        30.000 5
  20229555.346 9  20229564.806 8 106307030.484 9  82836646.843 8        54.000 9
        50.000 8
  22313579.932 7  22313588.772 5 117258651.701 7  91370378.245 5        45.000 7
        33.000 5
  22392145.972 8  22392153.452 6 117671519.782 8  91692093.711 6        49.000 8
        36.000 6
  23434290.984 6  23434318.664 2 123147997.597 6  95959471.340 2        37.000 6
        16.000 2
 13 10 21  5 25 44.0000000  0  7G01G04G13G17G20G23G28
  24631841.296 6  24631857.456 3 129441199.625 6 100863273.024 3        36.000 6
        21.000 3
  21059337.140 8  21059348.160 6 110667564.590 8  86234466.152 6        51.000 8
        40.000 6
  22660468.430 7  22660481.350 5 119081573.217 7  92790836.961 5        45.000 7
        31.000 5
  20229545.726 9  20229554.726 8 106306978.950 9  82836606.689 8        54.000 9
        50.000 8
  22314135.072 7  22314143.572 5 117261567.649 7  91372650.413 5        45.000 7
        34.000 5
  22392011.672 8  22392019.592 5 117670814.658 8  91691544.268 5        48.000 8
        35.000 5
  23434908.684 6  23434936.724 2 123151245.745 6  95962002.315 2        37.000 6
        16.000 2
 13 10 21  5 25 45.0000000  0  7G01G04G13G17G20G23G28
  24632313.536 6  24632330.136 3 129443684.313 6 100865209.133 3        36.000 6
        21.000 3
  21059070.820 8  21059081.540 6 110666165.944 8  86233376.294 6        51.000 8
        40.000 6
  22659977.510 7  22659989.570 5 119078991.494 7  92788825.241 5        45.000 7
        31.000 5
  20229535.986 9  20229544.926 8 106306928.094 9  82836567.060 8        54.000 9
        50.000 8
  22314689.312 7  22314698.432 5 117264483.899 7  91374922.814 5        45.000 7
        33.000 5
  22391877.452 8  22391885.252 5 117670110.202 8  91690995.340 5        48.000 8
        35.000 5
  23435526.824 6  23435555.144 2 123154494.127 6  95964533.423 2        37.000 6
        16.000 2
 13 10 21  5 25 46.0000000  0  7G01G04G13G17G20G23G28
  24632786.536 6  24632803.656 3 129446170.933 6 100867146.775 3        37.000 6
        21.000 3
  21058804.680 8  21058815.940 6 110664769.476 8  86232288.141 6        51.000 8
        41.000 6
  22659486.630 7  22659498.990 5 119076412.073 7  92786815.317 5        45.000 7
        30.000 5
  20229526.866 9  20229535.806 8 106306879.735 9  82836529.375 8        54.000 9
        50.000 8
  22315244.572 7  22315253.852 5 117267402.346 7  91377196.926 5        45.000 7
        33.000 5
  22391743.992 8  22391751.832 5 117669408.251 8  91690448.372 5        48.000 8
        35.000 5
  23436145.364 6  23436173.504 2 123157744.524 6  95967066.182 2        37.000 6
        16.000 2
 13 10 21  5 25 47.0000000  0  7G01G04G13G17G20G23G28
  24633259.696 6  24633275.876 3 129448654.426 6 100869081.954 3        36.000 6
        22.000 3
  21058538.620 8  21058549.600 6 110663370.031 8  86231197.664 6        51.000 8
        41.000 6
  22658995.710 7  22659007.310 5 119073829.827 7  92784803.167 5        45.000 7
        31.000 5
  20229516.966 9  20229526.266 8 106306828.751 9  82836489.651 8        55.000 9
        50.000 8
  22315799.712 7  22315808.612 5 117270317.803 7  91379468.709 5        44.000 7
        33.000 5
  22391609.712 8  22391617.752 5 117668703.676 8  91689899.351 5        48.000 8
        35.000 5
  23436763.644 6  23436791.464 2 123160991.826 6  95969596.551 2        37.000 6
        16.000 2
 13 10 21  5 25 48.0000000  0  7G01G04G13G17G20G23G28
  24633732.576 6  24633748.816 3 129451140.147 6 100871018.882 3        36.000 6
        21.000 3
  21058272.940 8  21058284.100 6 110661973.030 8  86230109.096 6        51.000 8
        41.000 6
  22658504.150 7  22658516.610 5 119071250.125 7  92782793.014 5        46.000 7
        31.000 5
  20229507.946 9  20229516.626 8 106306780.528 9  82836452.079 8        55.000 9
        50.000 8
  22316354.572 7  22316364.072 5 117273235.667 7  91381742.375 5        45.000 7
        33.000 5
  22391476.172 8  22391484.252 5 117668001.866 8  91689352.489 5        48.000 8
        35.000 5
  23437381.804 6  23437410.224 2 123164241.408 6  95972128.665 2        37.000 6
        16.000 2
 13 10 21  5 25 49.0000000  0  7G01G04G13G17G20G23G28
  24634204.876 6  24634221.716 3 129453623.611 6 100872954.069 3        36.000 6
        21.000 3
  21058006.460 8  21058017.360 6 110660573.903 8  86229018.874 6        50.000 8
        41.000 6
  22658013.450 7  22658025.330 5 119068668.437 7  92780781.316 5        45.000 7
        31.000 5
  20229498.306 9  20229507.406 8 106306730.537 9  82836413.125 8        55.000 9
        50.000 8
  22316909.892 7  22316918.672 5 117276151.442 7  91384014.405 5        44.000 7
        34.000 5
  22391342.612 8  22391350.292 6 117667298.278 8  91688804.244 6        48.000 8
        36.000 6
  23437999.964 6  23438028.164 2 123167488.794 6  95974659.040 2        37.000 6
        16.000 2
 13 10 21  5 25 50.0000000  0  7G01G04G13G17G20G23G28
  24634678.256 6  24634694.316 3 129456109.508 6 100874891.124 3        36.000 6
        21.000 3
  21057740.580 8  21057751.520 6 110659177.441 8  86227930.721 6        50.000 8
        41.000 6
  22657521.710 7  22657534.310 5 119066089.499 7  92778771.773 5        46.000 7
        31.000 5
  20229489.266 9  20229498.166 8 106306683.517 9  82836376.486 8        54.000 9
        50.000 8
  22317465.272 7  22317473.792 5 117279069.834 7  91386288.477 5        45.000 7
        33.000 5
  22391208.872 8  22391216.952 5 117666597.700 8  91688258.339 5        49.000 8
        35.000 5
  23438619.484 6  23438646.904 2 123170738.697 6  95977191.364 2        37.000 6
        16.000 2
 13 10 21  5 25 51.0000000  0  7G01G04G13G17G20G23G28
  24635150.796 6  24635167.356 3 129458593.984 6 100876827.075 3        36.000 6
        21.000 3
  21057475.060 8  21057485.880 6 110657779.738 8  86226841.606 6        50.000 8
        41.000 6
  22657030.850 7  22657043.790 5 119063509.432 7  92776761.345 5        46.000 7
        31.000 5
  20229480.106 9  20229488.966 8 106306635.589 9  82836339.137 8        54.000 9
        50.000 8
  22318020.232 7  22318028.912 5 117281986.964 7  91388561.568 5        45.000 7
        34.000 5
  22391075.772 8  22391083.672 5 117665896.182 8  91687711.703 5        49.000 8
        35.000 5
  23439237.264 6  23439264.804 2 123173987.245 6  95979722.680 2        37.000 6
        16.000 2
 13 10 21  5 25 52.0000000  0  7G01G04G13G17G20G23G28
  24635624.036 6  24635640.316 3 129461079.752 6 100878764.027 3        36.000 6
        20.000 3
  21057208.980 8  21057220.120 6 110656383.538 8  86225753.660 6        50.000 8
        41.000 6
  22656540.470 7  22656552.950 5 119060931.009 7  92774752.199 5        47.000 7
        31.000 5
  20229471.446 9  20229480.346 8 106306589.512 9  82836303.230 8        55.000 9
        50.000 8
  22318575.472 7  22318584.432 5 117284905.606 7  91390835.826 5        45.000 7
        33.000 5
  22390942.452 8  22390950.472 6 117665196.526 8  91687166.521 6        49.000 8
        36.000 6
  23439855.584 6  23439882.984 2 123177237.129 6  95982254.992 2        37.000 6
        15.000 2
 13 10 21  5 25 53.0000000  0  7G01G04G13G17G20G23G28
  24636097.436 6  24636112.776 3 129463563.744 6 100880699.603 3        36.000 6
        20.000 3
  21056943.480 8  21056954.140 6 110654985.725 8  86224664.459 6        50.000 8
        41.000 6
  22656049.690 7  22656061.890 5 119058351.086 7  92772741.874 5        46.000 7
        31.000 5
  20229462.426 9  20229471.466 8 106306542.120 9  82836266.306 8        55.000 9
        50.000 8
  22319130.812 7  22319139.752 5 117287822.607 7  91393108.818 5        45.000 7
        34.000 5
  22390808.952 8  22390817.172 6 117664495.575 8  91686620.326 6        49.000 8
        36.000 6
  23440473.204 6  23440501.484 2 123180485.317 6  95984785.975 2        37.000 6
        16.000 2
 13 10 21  5 25 54.0000000  0  7G01G04G13G17G20G23G28
  24636569.936 6  24636585.876 3 129466049.518 6 100882636.572 3        36.000 6
        20.000 3
  21056677.740 8  21056688.660 6 110653589.859 8  86223576.773 6        50.000 8
        41.000 6
  22655558.790 7  22655571.410 5 119055773.226 7  92770733.160 5        47.000 7
        30.000 5
  20229453.826 9  20229462.946 8 106306497.055 9  82836231.185 8        55.000 9
        50.000 8
  22319685.772 7  22319694.532 5 117290741.564 7  91395383.332 5        45.000 7
        33.000 5
  22390676.432 8  22390684.372 6 117663796.918 8  91686075.920 6        49.000 8
        36.000 6
  23441091.964 6  23441119.924 2 123183735.325 6  95987318.408 2        37.000 6
        17.000 2
 13 10 21  5 25 55.0000000  0  7G01G04G13G17G20G23G28
  24637043.136 6  24637059.156 3 129468535.449 6 100884573.673 3        36.000 6
        20.000 3
  21056412.260 8  21056423.460 6 110652194.318 8  86222489.339 6        51.000 8
        41.000 6
  22655068.490 7  22655080.710 5 119053195.815 7  92768724.792 5        46.000 7
        31.000 5
  20229445.246 9  20229454.386 8 106306452.603 9  82836196.547 8        55.000 9
        50.000 8
  22320241.452 7  22320250.512 5 117293660.810 7  91397658.067 5        45.000 7
        33.000 5
  22390543.192 8  22390551.432 6 117663098.908 8  91685532.022 6        49.000 8
        36.000 6
  23441711.004 6  23441738.464 2 123186985.483 6  95989850.964 2        37.000 6
        16.000 2
 13 10 21  5 25 56.0000000  0  7G01G04G13G17G20G23G28
  24637515.816 6  24637531.916 3 129471019.042 6 100886508.934 3        37.000 6
        19.000 3
  21056146.100 8  21056157.180 6 110650796.689 8  86221400.286 6        49.000 8
        41.000 6
  22654577.610 7  22654590.110 5 119050616.410 7  92766714.868 5        46.000 7
        31.000 5
  20229436.786 8  20229445.466 8 106306406.414 8  82836160.559 8        53.000 8
        50.000 8
  22320796.652 7  22320805.532 5 117296577.964 7  91399931.172 5        45.000 7
        34.000 5
  22390410.292 8  22390418.292 6 117662399.142 8  91684986.750 6        48.000 8
        36.000 6
  23442328.184 6  23442356.484 2 123190233.426 6  95992381.804 2        37.000 6
        16.000 2
 13 10 21  5 25 57.0000000  0  7G01G04G13G17G20G23G28
  24637988.656 6  24638004.156 3 129473503.802 6 100888445.117 3        37.000 6
        20.000 3
  21055880.500 8  21055891.340 6 110649400.410 8  86220312.272 6        49.000 8
        40.000 6
  22654086.810 7  22654099.470 5 119048038.505 7  92764706.125 5        45.000 7
        31.000 5
  20229428.226 8  20229437.026 8 106306361.912 8  82836125.882 8        52.000 8
        50.000 8
  22321352.112 7  22321360.592 5 117299496.472 7  91402205.334 5        45.000 7
        33.000 5
  22390277.212 8  22390285.172 5 117661701.055 8  91684442.790 5        48.000 8
        35.000 5
  23442946.744 6  23442974.744 2 123193482.643 6  95994913.621 2        37.000 6
        16.000 2
 13 10 21  5 25 58.0000000  0  7G01G04G13G17G20G23G28
  24638461.616 6  24638477.256 3 129475988.333 6 100890381.117 3        37.000 6
        20.000 3
  21055614.560 8  21055625.440 6 110648004.024 8  86219224.181 6        49.000 8
        40.000 6
  22653596.650 7  22653609.310 5 119045460.610 7  92762697.384 5        45.000 7
        32.000 5
  20229419.926 8  20229428.326 8 106306317.635 8  82836091.377 8        52.000 8
        50.000 8
  22321907.632 7  22321916.532 5 117302414.835 7  91404479.379 5        45.000 7
        33.000 5
  22390144.572 8  22390152.552 5 117661003.236 8  91683899.037 5        48.000 8
        35.000 5
  23443564.864 6  23443593.044 2 123196731.587 6  95997445.239 2        37.000 6
        16.000 2
 13 10 21  5 25 59.0000000  0  7G01G04G13G17G20G23G28
  24638935.176 6  24638950.196 3 129478475.533 6 100892319.189 3        37.000 6
        21.000 3
  21055349.380 8  21055360.460 6 110646610.562 8  86218138.374 6        48.000 8
        41.000 6
  22653106.410 7  22653119.250 5 119042885.753 7  92760691.006 5        46.000 7
        31.000 5
  20229412.066 8  20229420.866 8 106306276.615 8  82836059.415 8        52.000 8
        50.000 8
  22322463.212 7  22322472.352 5 117305336.119 7  91406755.706 5        45.000 7
        34.000 5
  22390012.172 8  22390020.192 5 117660308.649 8  91683357.801 5        48.000 8
        35.000 5
  23444184.264 6  23444212.204 2 123199983.343 6  95999979.066 2        37.000 6
        17.000 2
 13 10 21  5 26  0.0000000  0  7G01G04G13G17G20G23G28
  24639408.516 6  24639423.516 3 129480960.445 6 100894255.492 3        37.000 6
        21.000 3
  21055084.020 8  21055094.900 6 110645214.956 8  86217050.891 6        48.000 8
        40.000 6
  22652615.970 7  22652628.350 5 119040308.863 7  92758683.047 5        45.000 7
        31.000 5
  20229403.666 8  20229412.466 8 106306233.762 8  82836026.024 8        52.000 8
        50.000 8
  22323018.492 7  22323028.192 5 117308255.257 7  91409030.355 5        44.000 7
        33.000 5
  22389880.052 7  22389888.212 6 117659612.242 7  91682815.151 6        47.000 7
        36.000 6
  23444802.544 6  23444830.164 2 123203232.815 6  96002511.049 2        37.000 6
        16.000 2
 13 10 21  5 26  1.0000000  0  7G01G04G13G17G20G23G28
  24639880.636 6  24639896.656 3 129483448.491 6 100896194.240 3        37.000 6
        20.000 3
  21054819.120 8  21054830.120 6 110643822.689 8  86215966.010 6        49.000 8
        41.000 6
  22652126.330 7  22652139.210 5 119037735.430 7  92756677.781 5        45.000 7
        31.000 5
  20229396.086 8  20229405.506 8 106306194.602 8  82835995.511 8        53.000 8
        50.000 8
  22323574.832 7  22323583.972 5 117311177.703 7  91411307.588 5        44.000 7
        33.000 5
  22389747.892 7  22389756.212 5 117658919.512 7  91682275.360 5        47.000 7
        35.000 5
  23445421.304 6  23445449.364 2 123206485.453 6  96005045.500 2        37.000 6
        16.000 2
 13 10 21  5 26  2.0000000  0  7G01G04G13G17G20G23G28
  24640353.516 6  24640369.836 3 129485933.385 6 100898130.537 3        37.000 6
        20.000 3
  21054553.860 8  21054564.660 6 110642427.459 8  86214878.816 6        50.000 8
        41.000 6
  22651636.070 7  22651648.710 5 119035159.159 7  92754670.308 5        45.000 7
        31.000 5
  20229388.326 9  20229397.426 8 106306152.798 9  82835962.935 8        54.000 9
        50.000 8
  22324130.172 7  22324139.812 5 117314097.194 7  91413582.515 5        44.000 7
        33.000 5
  22389615.252 7  22389623.692 5 117658224.166 7  91681733.534 5        47.000 7
        35.000 5
  23446039.304 6  23446067.844 2 123209735.075 6  96007577.639 2        37.000 6
        15.000 2
 13 10 21  5 26  3.0000000  0  7G01G04G13G17G20G23G28
  24640826.816 6  24640842.236 3 129488418.389 6 100900066.883 3        37.000 6
        21.000 3
  21054287.980 8  21054298.620 6 110641032.528 8  86213791.855 6        50.000 8
        40.000 6
  22651145.890 7  22651158.590 5 119032583.314 7  92752663.164 5        45.000 7
        32.000 5
  20229380.326 9  20229389.506 8 106306111.633 9  82835930.856 8        54.000 9
        50.000 8
  22324685.812 7  22324695.352 5 117317016.981 7  91415857.670 5        44.000 7
        33.000 5
  22389483.352 8  22389491.512 6 117657529.443 8  91681192.197 6        48.000 8
        36.000 6
  23446658.064 6  23446686.404 2 123212984.808 6  96010109.904 2        37.000 6
        16.000 2
 13 10 21  5 26  4.0000000  0  7G01G04G13G17G20G23G28
  24641300.396 6  24641315.776 3 129490904.950 6 100902004.453 3        38.000 6
        21.000 3
  21054023.080 8  21054034.080 6 110639639.345 8  86212706.261 6        50.000 8
        40.000 6
  22650656.070 7  22650669.150 5 119030009.332 7  92750657.472 5        46.000 7
        32.000 5
  20229372.906 9  20229382.066 8 106306072.554 9  82835900.411 8        54.000 9
        50.000 8
  22325241.932 7  22325251.172 5 117319938.462 7  91418134.147 5        44.000 7
        33.000 5
  22389351.092 8  22389359.812 6 117656836.805 8  91680652.482 6        48.000 8
        36.000 6
  23447276.304 6  23447304.684 2 123216236.216 6  96012643.414 2        37.000 6
        16.000 2
 13 10 21  5 26  5.0000000  0  7G01G04G13G17G20G23G28
  24641772.596 6  24641788.416 3 129493388.667 6 100903939.813 3        37.000 6
        20.000 3
  21053757.480 8  21053768.100 6 110638243.452 8  86211618.555 6        50.000 8
        40.000 6
  22650166.170 7  22650178.490 5 119027432.754 7  92748649.747 5        45.000 7
        32.000 5
  20229365.106 9  20229374.086 8 106306031.089 9  82835868.098 8        54.000 9
        50.000 8
  22325796.932 7  22325806.652 5 117322857.243 7  91420408.524 5        44.000 7
        33.000 5
  22389219.172 8  22389227.792 6 117656141.798 8  91680110.918 6        48.000 8
        36.000 6
  23447894.744 6  23447922.944 2 123219484.748 6  96015174.665 2        36.000 6
        16.000 2
 13 10 21  5 26  6.0000000  0  7G01G04G13G17G20G23G28
  24642245.456 6  24642261.636 3 129495875.024 6 100905877.238 3        37.000 6
        20.000 3
  21053491.940 8  21053503.140 6 110636850.434 8  86210533.091 6        51.000 8
        40.000 6
  22649676.350 7  22649689.030 5 119024859.203 7  92746644.382 5        45.000 7
        31.000 5
  20229357.906 9  20229366.806 8 106305992.843 9  82835838.290 8        54.000 9
        50.000 8
  22326353.152 7  22326362.632 5 117325778.885 7  91422685.126 5        45.000 7
        33.000 5
  22389087.532 8  22389096.092 5 117655450.009 8  91679571.866 5        48.000 8
        35.000 5
  23448513.724 6  23448541.524 2 123222736.009 6  96017708.071 2        36.000 6
        16.000 2
 13 10 21  5 26  7.0000000  0  7G01G04G13G17G20G23G28
  24642719.056 6  24642734.216 3 129498360.319 6 100907813.838 3        37.000 6
        20.000 3
  21053227.140 8  21053237.960 6 110635456.565 8  86209446.965 6        51.000 8
        40.000 6
  22649186.110 7  22649199.370 5 119022284.871 7  92744638.428 5        46.000 7
        33.000 5
  20229350.226 9  20229359.546 8 106305954.053 9  82835808.066 8        54.000 9
        50.000 8
  22326909.372 7  22326918.412 5 117328699.652 7  91424961.042 5        45.000 7
        33.000 5
  22388955.812 8  22388964.252 6 117654757.690 8  91679032.402 6        49.000 8
        36.000 6
  23449132.664 6  23449160.184 2 123225986.296 6  96020240.731 2        37.000 6
        16.000 2
 13 10 21  5 26  8.0000000  0  7G01G04G13G17G20G23G28
  24643191.876 6  24643206.936 3 129500844.290 6 100909749.375 3        37.000 6
        20.000 3
  21052961.780 8  21052972.400 6 110634061.511 8  86208359.912 6        51.000 8
        41.000 6
  22648696.130 7  22648708.930 5 119019709.499 7  92742631.649 5        46.000 7
        31.000 5
  20229343.106 9  20229352.086 8 106305914.416 9  82835777.183 8        55.000 9
        50.000 8
  22327464.552 7  22327473.932 5 117331619.229 7  91427236.039 5        46.000 7
        33.000 5
  22388823.652 8  22388831.932 6 117654064.498 8  91678492.255 6        49.000 8
        36.000 6
  23449751.044 6  23449778.604 2 123229235.280 6  96022772.374 2        37.000 6
        16.000 2
 13 10 21  5 26  9.0000000  0  7G01G04G13G17G20G23G28
  24643663.956 6  24643680.316 3 129503329.173 6 100911685.643 3        37.000 6
        21.000 3
  21052696.400 8  21052707.280 6 110632667.579 8  86207273.731 6        51.000 8
        41.000 6
  22648206.970 7  22648219.050 5 119017135.354 7  92740625.830 5        45.000 7
        32.000 5
  20229335.586 9  20229344.406 8 106305876.247 9  82835747.438 8        55.000 9
        50.000 8
  22328020.452 7  22328029.752 5 117334539.915 7  91429511.894 5        46.000 7
        34.000 5
  22388692.292 8  22388700.532 6 117653372.809 8  91677953.270 6        48.000 8
        36.000 6
  23450369.504 6  23450397.444 2 123232485.280 6  96025304.786 2        37.000 6
        16.000 2
 13 10 21  5 26 10.0000000  0  7G01G04G13G17G20G23G28
  24644137.236 6  24644153.656 3 129505816.755 6 100913624.035 3        37.000 6
        21.000 3
  21052431.640 8  21052442.460 6 110631276.497 8  86206189.779 6        51.000 8
        40.000 6
  22647716.830 7  22647729.110 5 119014564.186 7  92738622.341 5        46.000 7
        33.000 5
  20229329.126 9  20229338.206 8 106305841.237 9  82835720.158 8        55.000 9
        50.000 8
  22328577.052 7  22328586.452 5 117337463.430 7  91431789.956 5        44.000 7
        33.000 5
  22388561.152 8  22388569.932 6 117652684.274 8  91677416.753 6        48.000 8
        36.000 6
  23450987.824 6  23451015.564 2 123235737.966 6  96027839.273 2        37.000 6
        16.000 2
 13 10 21  5 26 11.0000000  0  7G01G04G13G17G20G23G28
  24644610.536 6  24644626.536 3 129508300.820 6 100915559.683 3        38.000 6
        22.000 3
  21052166.380 8  21052176.740 6 110629882.118 8  86205103.250 6        51.000 8
        41.000 6
  22647227.130 7  22647239.810 5 119011989.821 7  92736616.345 5        46.000 7
        31.000 5
  20229321.646 9  20229330.626 8 106305803.265 9  82835690.569 8        54.000 9
        50.000 8
  22329132.912 7  22329141.832 5 117340383.627 7  91434065.436 5        44.000 7
        33.000 5
  22388429.372 8  22388437.952 6 117651992.777 8  91676877.928 6        48.000 8
        36.000 6
  23451606.564 6  23451634.424 2 123238987.220 6  96030371.135 2        37.000 6
        17.000 2
 13 10 21  5 26 12.0000000  0  7G01G04G13G17G20G23G28
  24645082.956 6  24645099.356 3 129510786.505 6 100917496.578 3        38.000 6
        22.000 3
  21051901.080 8  21051912.040 6 110628489.557 8  86204018.138 6        51.000 8
        41.000 6
  22646737.670 7  22646750.230 5 119009417.444 7  92734611.900 5        46.000 7
        31.000 5
  20229315.146 9  20229324.166 8 106305767.473 9  82835662.683 8        55.000 9
        50.000 8
  22329688.772 7  22329697.832 5 117343305.661 7  91436342.342 5        45.000 7
        34.000 5
  22388298.732 8  22388306.992 6 117651303.474 8  91676340.811 6        48.000 8
        36.000 6
  23452225.864 6  23452252.824 2 123242238.195 6  96032904.337 2        37.000 6
        16.000 2
 13 10 21  5 26 13.0000000  0  7G01G04G13G17G20G23G28
  24645557.136 6  24645572.216 3 129513271.714 6 100919433.116 3        37.000 6
        22.000 3
  21051636.300 8  21051647.080 6 110627096.739 8  86202932.823 6        51.000 8
        41.000 6
  22646249.030 7  22646260.930 5 119006844.889 7  92732607.316 5        45.000 7
        32.000 5
  20229308.046 9  20229317.006 8 106305731.707 9  82835634.810 8        54.000 9
        50.000 8
  22330245.172 7  22330254.292 5 117346227.371 7  91438618.999 5        44.000 7
        34.000 5
  22388167.152 8  22388175.812 6 117650614.205 8  91675803.721 6        48.000 8
        36.000 6
  23452843.464 6  23452871.684 2 123245488.771 6  96035437.225 2        37.000 6
        16.000 2
 13 10 21  5 26 14.0000000  0  7G01G04G13G17G20G23G28
  24646029.696 6  24646045.236 3 129515758.383 6 100921370.777 3        37.000 6
        22.000 3
  21051371.380 8  21051382.320 6 110625705.503 8  86201848.749 6        50.000 8
        41.000 6
  22645759.090 7  22645771.310 5 119004274.046 7  92730604.072 5        45.000 7
        32.000 5
  20229301.666 9  20229310.666 8 106305697.872 9  82835608.447 8        55.000 9
        50.000 8
  22330801.072 7  22330810.272 5 117349150.692 7  91440896.909 5        44.000 7
        34.000 5
  22388036.452 8  22388045.132 5 117649926.864 8  91675268.129 5        48.000 8
        35.000 5
  23453463.464 6  23453490.424 2 123248740.760 6  96037971.187 2        36.000 6
        16.000 2
 13 10 21  5 26 15.0000000  0  7G01G04G13G17G20G23G28
  24646503.316 6  24646517.856 3 129518243.542 6 100923307.256 3        37.000 6
        22.000 3
  21051106.380 8  21051117.160 6 110624312.950 8  86200763.640 6        51.000 8
        41.000 6
  22645269.550 7  22645281.850 5 119001702.022 7  92728599.914 5        46.000 7
        31.000 5
  20229295.166 9  20229304.326 8 106305663.044 9  82835581.306 8        55.000 9
        50.000 8
  22331357.212 7  22331366.372 5 117352072.660 7  91443173.770 5        44.000 7
        34.000 5
  22387905.512 8  22387913.752 5 117649238.563 8  91674731.794 5        48.000 8
        35.000 5
  23454081.824 6  23454109.104 2 123251991.302 6  96040504.046 2        36.000 6
        15.000 2
 13 10 21  5 26 16.0000000  0  7G01G04G13G17G20G23G28
  24646975.676 6  24646991.096 3 129520730.792 6 100925245.363 3        37.000 6
        22.000 3
  21050841.980 8  21050852.660 6 110622922.738 8  86199680.363 6        51.000 8
        40.000 6
  22644780.150 7  22644792.990 5 118999132.459 7  92726597.661 5        46.000 7
        31.000 5
  20229288.966 9  20229297.986 8 106305630.902 9  82835556.262 8        55.000 9
        50.000 8
  22331913.412 7  22331922.632 5 117354996.977 7  91445452.456 5        45.000 7
        33.000 5
  22387774.992 8  22387783.432 5 117648552.917 8  91674197.529 5        48.000 8
        35.000 5
  23454700.084 6  23454728.164 2 123255244.095 6  96043038.602 2        37.000 6
        16.000 2
 13 10 21  5 26 17.0000000  0  7G01G04G13G17G20G23G28
  24647448.996 6  24647464.216 3 129523215.906 6 100927181.826 3        37.000 6
        22.000 3
  21050576.700 8  21050587.340 6 110621530.490 8  86198595.502 6        51.000 8
        41.000 6
  22644291.530 7  22644304.190 5 118996560.981 7  92724593.920 5        46.000 7
        31.000 5
  20229282.526 9  20229291.586 8 106305597.044 9  82835529.879 8        55.000 9
        50.000 8
  22332469.952 7  22332478.792 5 117357919.223 7  91447729.531 5        45.000 7
        33.000 5
  22387644.032 8  22387652.492 6 117647865.572 8  91673661.939 6        48.000 8
        36.000 6
  23455318.564 6  23455346.664 2 123258494.687 6  96045571.477 2        36.000 6
        16.000 2
 13 10 21  5 26 18.0000000  0  7G01G04G13G17G20G23G28
  24647921.896 6  24647937.356 3 129525701.475 6 100929118.635 3        37.000 6
        22.000 3
  21050312.380 8  21050322.920 6 110620138.941 8  86197511.178 6        51.000 8
        41.000 6
  22643801.990 7  22643814.510 5 118993990.302 7  92722590.798 5        46.000 7
        31.000 5
  20229276.246 9  20229285.386 8 106305564.205 9  82835504.287 8        55.000 9
        50.000 8
  22333026.232 7  22333035.292 5 117360842.158 7  91450007.137 5        45.000 7
        33.000 5
  22387513.732 8  22387521.892 6 117647179.246 8  91673127.145 6        48.000 8
        36.000 6
  23455936.904 6  23455965.624 2 123261745.806 6  96048104.779 2        36.000 6
        15.000 2
 13 10 21  5 26 19.0000000  0  7G01G04G13G17G20G23G28
  24648394.836 6  24648410.056 3 129528186.645 6 100931055.132 3        37.000 6
        23.000 3
  21050047.280 8  21050058.060 6 110618747.187 8  86196426.697 6        51.000 8
        40.000 6
  22643313.050 7  22643325.030 5 118991419.533 7  92720587.612 5        46.000 7
        30.000 5
  20229270.246 9  20229278.906 8 106305531.485 9  82835478.788 8        55.000 9
        50.000 8
  22333581.892 7  22333591.172 5 117363764.862 7  91452284.570 5        45.000 7
        34.000 5
  22387382.672 7  22387391.352 5 117646493.064 7  91672592.463 5        47.000 7
        35.000 5
  23456556.284 6  23456584.104 2 123264996.647 6  96050637.881 2        36.000 6
        15.000 2
 13 10 21  5 26 20.0000000  0  7G01G04G13G17G20G23G28
  24648867.536 6  24648882.836 3 129530671.577 6 100932991.439 3        37.000 6
        23.000 3
  21049782.460 8  21049793.060 6 110617355.375 8  86195342.170 6        52.000 8
        40.000 6
  22642823.990 7  22642835.590 5 118988848.849 7  92718584.479 5        46.000 7
        31.000 5
  20229264.046 9  20229272.786 8 106305499.069 9  82835453.537 8        55.000 9
        50.000 8
  22334138.012 7  22334147.112 5 117366687.521 7  91454561.967 5        45.000 7
        33.000 5
  22387252.172 7  22387260.732 6 117645807.174 7  91672058.001 6        47.000 7
        36.000 6
  23457175.364 6  23457202.404 2 123268247.307 6  96053170.789 2        36.000 6
        16.000 2
 13 10 21  5 26 21.0000000  0  7G01G04G13G17G20G23G28
  24649341.256 6  24649356.856 3 129533160.336 6 100934930.740 3        37.000 6
        23.000 3
  21049518.480 8  21049528.840 6 110615967.580 8  86194260.772 6        51.000 8
        41.000 6
  22642335.330 7  22642347.810 5 118986282.324 7  92716584.599 5        46.000 7
        31.000 5
  20229258.606 9  20229267.866 8 106305471.002 9  82835431.663 8        54.000 9
        50.000 8
  22334695.092 7  22334704.312 5 117369614.158 7  91456842.461 5        45.000 7
        33.000 5
  22387122.472 7  22387131.432 5 117645125.630 7  91671526.932 5        47.000 7
        35.000 5
  23457794.444 6  23457822.024 2 123271501.845 6  96055706.768 2        36.000 6
        16.000 2
 13 10 21  5 26 22.0000000  0  7G01G04G13G17G20G23G28
  24649813.656 6  24649829.676 3 129535645.332 6 100936867.098 3        37.000 6
        22.000 3
  21049253.620 8  21049263.900 6 110614576.155 8  86193176.552 6        51.000 8
        41.000 6
  22641846.210 7  22641858.710 5 118983712.244 7  92714581.950 5        46.000 7
        31.000 5
  20229252.526 9  20229261.826 8 106305439.645 9  82835407.233 8        54.000 9
        50.000 8
  22335251.392 7  22335260.472 5 117372537.174 7  91459120.134 5        46.000 7
        33.000 5
  22386992.612 7  22387000.872 6 117644440.786 7  91670993.289 6        47.000 7
        36.000 6
  23458412.764 6  23458440.744 2 123274752.605 6  96058239.824 2        37.000 6
        16.000 2
 13 10 21  5 26 23.0000000  0  7G01G04G13G17G20G23G28
  24650286.856 6  24650302.856 3 129538130.149 6 100938803.295 3        37.000 6
        22.000 3
  21048989.020 8  21048999.440 6 110613184.774 8  86192092.353 6        51.000 8
        41.000 6
  22641357.150 7  22641369.230 5 118981142.326 7  92712579.431 5        46.000 7
        31.000 5
  20229246.786 9  20229255.626 8 106305408.632 9  82835383.065 8        54.000 9
        49.000 8
  22335807.752 7  22335816.632 5 117375460.182 7  91461397.807 5        46.000 7
        33.000 5
  22386862.232 7  22386870.392 5 117643756.305 7  91670459.933 5        47.000 7
        35.000 5
  23459030.444 6  23459058.984 2 123278003.315 6  96060772.820 2        36.000 6
        16.000 2
 13 10 21  5 26 24.0000000  0  7G01G04G13G17G20G23G28
  24650760.056 6  24650775.936 3 129540617.268 6 100940741.306 3        37.000 6
        22.000 3
  21048724.720 8  21048735.040 6 110611795.920 8  86191010.138 6        51.000 8
        41.000 6
  22640868.430 7  22640881.230 5 118978575.092 7  92710578.993 5        46.000 7
        31.000 5
  20229241.426 9  20229250.546 8 106305380.505 9  82835361.150 8        54.000 9
        50.000 8
  22336364.512 7  22336373.212 5 117378385.753 7  91463677.472 5        45.000 7
        33.000 5
  22386732.392 7  22386740.852 6 117643074.713 7  91669928.825 6        47.000 7
        36.000 6
  23459650.244 6  23459678.584 2 123281256.379 6  96063307.628 2        36.000 6
        16.000 2
 13 10 21  5 26 25.0000000  0  7G01G04G13G17G20G23G28
  24651232.936 6  24651248.756 3 129543101.694 6 100942677.220 3        37.000 6
        23.000 3
  21048459.920 8  21048470.000 6 110610404.503 8  86189925.918 6        51.000 8
        41.000 6
  22640379.650 7  22640391.850 5 118976005.387 7  92708576.634 5        46.000 7
        31.000 5
  20229235.766 9  20229244.466 8 106305350.152 9  82835337.496 8        54.000 9
        50.000 8
  22336920.432 7  22336929.132 5 117381308.719 7  91465955.108 5        45.000 7
        33.000 5
  22386602.472 7  22386610.772 6 117642390.894 7  91669395.979 6        47.000 7
        36.000 6
  23460268.004 6  23460297.024 3 123284506.763 6  96065840.339 3        36.000 6
        18.000 3
 13 10 21  5 26 26.0000000  0  7G01G04G13G17G20G23G28
  24651706.476 6  24651722.676 3 129545590.027 6 100944616.172 3        37.000 6
        23.000 3
  21048195.820 8  21048206.540 6 110609017.199 8  86188844.909 6        51.000 8
        41.000 6
  22639890.890 7  22639903.270 5 118973439.942 7  92706577.594 5        46.000 7
        31.000 5
  20229230.686 9  20229239.606 8 106305324.229 9  82835317.302 8        54.000 9
        50.000 8
  22337477.512 7  22337486.212 5 117384235.776 7  91468235.926 5        45.000 7
        33.000 5
  22386472.932 8  22386481.352 6 117641711.534 8  91668866.611 6        48.000 8
        36.000 6
  23460887.864 6  23460916.044 2 123287761.127 6  96068376.146 2        36.000 6
        17.000 2
 13 10 21  5 26 27.0000000  0  7G01G04G13G17G20G23G28
  24652178.536 6  24652195.076 3 129548073.018 6 100946550.966 3        37.000 6
        22.000 3
  21047931.240 8  21047940.940 6 110607624.752 8  86187759.885 6        51.000 8
        41.000 6
  22639402.330 7  22639413.990 5 118970869.465 7  92704574.633 5        45.000 7
        32.000 5
  20229224.886 9  20229234.146 8 106305293.495 9  82835293.350 8        54.000 9
        50.000 8
  22338033.932 7  22338042.452 5 117387157.678 7  91470512.731 5        44.000 7
        33.000 5
  22386342.972 8  22386351.392 5 117641027.344 8  91668333.478 5        48.000 8
        35.000 5
  23461506.504 6  23461533.964 2 123291010.197 6  96070907.842 2        36.000 6
        16.000 2
 13 10 21  5 26 28.0000000  0  7G01G04G13G17G20G23G28
  24652651.896 6  24652668.516 3 129550562.504 6 100948490.830 3        37.000 6
        22.000 3
  21047666.920 8  21047677.520 6 110606238.980 8  86186680.065 6        52.000 8
        41.000 6
  22638914.230 7  22638926.350 5 118968305.788 7  92702576.967 5        45.000 7
        31.000 5
  20229220.306 9  20229229.446 8 106305269.771 9  82835274.864 8        55.000 9
        50.000 8
  22338590.732 7  22338599.372 5 117390086.228 7  91472794.717 5        45.000 7
        33.000 5
  22386213.872 8  22386222.252 5 117640350.154 8  91667805.798 5        48.000 8
        35.000 5
  23462126.264 5  23462154.104 2 123294265.815 5  96073444.616 2        35.000 5
        15.000 2
 13 10 21  5 26 29.0000000  0  7G01G04G13G17G20G23G28
  24653125.936 6  24653141.256 3 129553047.855 6 100950427.477 3        37.000 6
        23.000 3
  21047402.740 8  21047412.900 6 110604849.247 8  86185597.160 6        52.000 8
        41.000 6
  22638425.590 7  22638437.710 5 118965738.278 7  92700576.311 5        45.000 7
        31.000 5
  20229215.086 9  20229224.266 8 106305242.429 9  82835253.560 8        55.000 9
        50.000 8
  22339147.332 7  22339156.392 5 117393010.842 7  91475073.635 5        45.000 7
        33.000 5
  22386084.412 8  22386092.572 5 117639669.351 8  91667275.310 5        48.000 8
        35.000 5
  23462745.064 5  23462772.884 2 123297517.358 5  96075978.248 2        35.000 5
        15.000 2
 13 10 21  5 26 30.0000000  0  7G01G04G13G17G20G23G28
  24653598.656 6  24653614.516 3 129555534.611 6 100952365.211 3        37.000 6
        23.000 3
  21047138.620 8  21047148.840 6 110603461.135 8  86184515.514 6        52.000 8
        41.000 6
  22637937.010 7  22637949.430 5 118963172.506 7  92698577.017 5        45.000 7
        31.000 5
  20229210.246 9  20229219.466 8 106305217.013 9  82835233.751 8        55.000 9
        50.000 8
  22339704.252 7  22339713.192 5 117395937.030 7  91477353.782 5        45.000 7
        33.000 5
  22385955.792 7  22385963.832 6 117638990.516 7  91666746.344 6        47.000 7
        36.000 6
  23463363.724 6  23463392.084 2 123300770.349 6  96078513.015 2        36.000 6
        16.000 2
 13 10 21  5 26 31.0000000  0  7G01G04G13G17G20G23G28
  24654072.076 6  24654087.776 3 129558021.856 6 100954303.310 3        37.000 6
        22.000 3
  21046874.500 8  21046885.060 6 110602073.674 8  86183434.380 6        52.000 8
        41.000 6
  22637449.170 7  22637461.690 5 118960607.518 7  92696578.329 5        45.000 7
        31.000 5
  20229205.606 9  20229214.806 8 106305192.601 9  82835214.731 8        54.000 9
        50.000 8
  22340261.332 7  22340269.992 5 117398863.853 7  91479634.417 5        44.000 7
        33.000 5
  22385826.052 8  22385834.192 5 117638312.642 8  91666218.129 5        48.000 8
        35.000 5
  23463982.644 5  23464010.944 2 123304023.935 5  96081048.233 2        35.000 5
        15.000 2
 13 10 21  5 26 32.0000000  0  7G01G04G13G17G20G23G28
  24654544.816 6  24654560.916 3 129560506.926 6 100956239.726 3        37.000 6
        23.000 3
  21046610.280 8  21046620.440 6 110600684.245 8  86182351.706 6        52.000 8
        41.000 6
  22636960.330 7  22636972.870 5 118958040.657 7  92694578.186 5        45.000 7
        30.000 5
  20229200.586 9  20229209.826 8 106305166.557 9  82835194.437 8        54.000 9
        49.000 8
  22340817.972 7  22340826.892 5 117401788.696 7  91481913.517 5        45.000 7
        34.000 5
  22385697.352 8  22385705.172 5 117637633.137 8  91665688.652 5        48.000 8
        35.000 5
  23464601.764 6  23464629.904 2 123307275.336 6  96083581.751 2        36.000 6
        15.000 2
 13 10 21  5 26 33.0000000  0  7G01G04G13G17G20G23G28
  24655018.356 6  24655033.456 3 129562991.974 6 100958176.127 3        37.000 6
        23.000 3
  21046345.660 8  21046355.800 6 110599294.937 8  86181269.136 6        50.000 8
        41.000 6
  22636472.750 7  22636484.310 5 118955474.061 7  92692578.251 5        45.000 7
        30.000 5
  20229195.886 9  20229204.626 8 106305140.972 9  82835174.499 8        54.000 9
        49.000 8
  22341373.992 7  22341383.052 5 117404713.651 7  91484192.701 5        44.000 7
        33.000 5
  22385567.992 8  22385576.152 5 117636954.113 8  91665159.551 5        48.000 8
        35.000 5
  23465219.844 5  23465248.284 2 123310526.750 5  96086115.312 2        35.000 5
        15.000 2
 13 10 21  5 26 34.0000000  0  7G01G04G13G17G20G23G28
  24655491.436 6  24655507.576 3 129565480.727 6 100960115.411 3        37.000 6
        23.000 3
  21046082.240 8  21046092.500 6 110597909.529 8  86180189.601 6        51.000 8
        40.000 6
  22635984.930 7  22635997.010 5 118952911.495 7  92690581.453 5        46.000 7
        31.000 5
  20229191.486 9  20229200.746 8 106305119.613 9  82835157.858 8        54.000 9
        50.000 8
  22341931.612 7  22341940.532 5 117407642.514 7  91486474.932 5        45.000 7
        33.000 5
  22385439.672 8  22385447.972 5 117636279.304 8  91664633.723 5        48.000 8
        35.000 5
  23465839.584 5  23465868.304 2 123313782.003 5  96088651.836 2        35.000 5
        16.000 2
 13 10 21  5 26 35.0000000  0  7G01G04G13G17G20G23G28
  24655964.176 6  24655979.596 3 129567964.759 6 100962051.018 3        37.000 6
        23.000 3
  21045817.980 8  21045828.020 6 110596519.650 8  86179106.581 6        51.000 8
        41.000 6
  22635496.310 7  22635508.190 5 118950344.573 7  92688581.264 5        46.000 7
        31.000 5
  20229186.786 9  20229195.966 8 106305094.098 9  82835137.975 8        54.000 9
        50.000 8
  22342488.312 7  22342496.992 5 117410566.854 7  91488753.643 5        44.000 7
        33.000 5
  22385310.572 8  22385318.272 5 117635600.377 8  91664104.693 5        48.000 8
        35.000 5
  23466458.224 6  23466487.144 2 123317032.537 6  96091184.676 2        36.000 6
        16.000 2
 13 10 21  5 26 36.0000000  0  7G01G04G13G17G20G23G28
  24656437.376 6  24656453.496 3 129570453.948 6 100963990.653 3        37.000 6
        22.000 3
  21045554.100 8  21045564.440 6 110595135.085 8  86178027.693 6        51.000 8
        41.000 6
  22635008.910 7  22635020.830 5 118947783.072 7  92686585.303 5        46.000 7
        30.000 5
  20229182.986 9  20229192.486 8 106305074.239 9  82835122.503 8        54.000 9
        50.000 8
  22343045.532 7  22343054.452 5 117413496.497 7  91491036.475 5        44.000 7
        33.000 5
  22385182.172 8  22385190.312 5 117634927.083 8  91663580.051 5        48.000 8
        35.000 5
  23467078.184 6  23467106.744 2 123320288.323 6  96093721.587 2        36.000 6
        16.000 2
 13 10 21  5 26 37.0000000  0  7G01G04G13G17G20G23G28
  24656910.236 6  24656926.376 3 129572938.842 6 100965926.933 3        37.000 6
        22.000 3
  21045290.000 8  21045300.700 6 110593746.358 8  86176945.576 6        51.000 8
        41.000 6
  22634521.010 7  22634532.410 5 118945217.545 7  92684586.200 5        46.000 7
        30.000 5
  20229178.386 9  20229187.506 8 106305050.565 9  82835104.056 8        55.000 9
        50.000 8
  22343602.612 7  22343611.492 5 117416421.965 7  91493316.056 5        45.000 7
        33.000 5
  22385053.492 8  22385061.332 6 117634249.998 8  91663052.452 6        48.000 8
        36.000 6
  23467697.044 6  23467725.444 2 123323539.789 6  96096255.148 2        36.000 6
        15.000 2
 13 10 21  5 26 38.0000000  0  7G01G04G13G17G20G23G28
  24657384.016 6  24657399.276 3 129575425.992 6 100967864.964 3        37.000 6
        22.000 3
  21045025.920 8  21045036.460 6 110592360.164 8  86175865.431 6        51.000 8
        41.000 6
  22634033.150 7  22634044.870 5 118942654.680 7  92682589.160 5        45.000 7
        31.000 5
  20229174.446 9  20229183.786 8 106305029.752 9  82835087.836 8        55.000 9
        50.000 8
  22344159.572 7  22344168.632 5 117419349.950 7  91495597.601 5        45.000 7
        33.000 5
  22384925.192 8  22384932.792 5 117633575.743 8  91662527.061 5        48.000 8
        35.000 5
  23468316.664 5  23468344.544 2 123326793.657 5  96098790.574 2        35.000 5
        16.000 2
 13 10 21  5 26 39.0000000  0  7G01G04G13G17G20G23G28
  24657857.016 6  24657872.896 3 129577913.660 6 100969803.413 3        37.000 6
        22.000 3
  21044762.420 8  21044773.060 6 110590974.658 8  86174785.816 6        51.000 8
        41.000 6
  22633545.470 7  22633557.770 5 118940092.604 7  92680592.743 5        46.000 7
        30.000 5
  20229170.726 9  20229179.746 8 106305009.943 9  82835072.403 8        54.000 9
        50.000 8
  22344717.032 7  22344726.072 5 117422278.610 7  91497879.674 5        45.000 7
        33.000 5
  22384796.672 8  22384804.752 6 117632902.525 8  91662002.480 6        49.000 8
        36.000 6
  23468935.444 6  23468963.884 2 123330048.059 6  96101326.441 2        36.000 6
        16.000 2
 13 10 21  5 26 40.0000000  0  7G01G04G13G17G20G23G28
  24658329.896 6  24658345.756 3 129580398.197 6 100971739.405 3        37.000 6
        22.000 3
  21044498.340 8  21044508.960 6 110589586.144 8  86173703.855 6        50.000 8
        41.000 6
  22633057.390 7  22633068.870 5 118937527.694 7  92678594.114 5        45.000 7
        30.000 5
  20229166.506 9  20229175.426 8 106304987.481 9  82835054.893 8        55.000 9
        50.000 8
  22345273.332 7  22345282.592 5 117425204.225 7  91500159.374 5        45.000 7
        34.000 5
  22384668.672 8  22384676.312 5 117632226.649 8  91661475.827 5        48.000 8
        35.000 5
  23469554.104 5  23469582.524 2 123333299.357 5  96103859.826 2        35.000 5
        16.000 2
 13 10 21  5 26 41.0000000  0  7G01G04G13G17G20G23G28
  24658804.676 6  24658819.356 3 129582886.148 6 100973678.079 3        37.000 6
        22.000 3
  21044234.740 8  21044245.180 6 110588201.255 8  86172624.727 6        50.000 8
        41.000 6
  22632569.550 7  22632582.010 5 118934966.524 7  92676598.403 5        46.000 7
        31.000 5
  20229163.046 9  20229172.066 8 106304968.980 9  82835040.481 8        55.000 9
        50.000 8
  22345831.012 7  22345840.092 5 117428133.476 7  91502441.909 5        44.000 7
        34.000 5
  22384540.412 8  22384548.572 6 117631554.727 8  91660952.255 6        48.000 8
        36.000 6
  23470173.824 5  23470201.864 2 123336554.134 5  96106396.002 2        35.000 5
        16.000 2
 13 10 21  5 26 42.0000000  0  7G01G04G13G17G20G23G28
  24659276.916 6  24659292.676 3 129585371.785 6 100975614.935 3        37.000 6
        22.000 3
  21043970.940 8  21043980.920 6 110586814.254 8  86171543.949 6        51.000 8
        41.000 6
  22632082.330 7  22632093.590 5 118932403.362 7  92674601.142 5        46.000 7
        31.000 5
  20229159.326 9  20229168.506 8 106304948.699 9  82835024.677 8        54.000 9
        50.000 8
  22346388.112 7  22346397.092 5 117431060.583 7  91504722.772 5        45.000 7
        33.000 5
  22384412.152 8  22384420.492 6 117630881.005 8  91660427.286 6        48.000 8
        36.000 6
  23470792.004 5  23470821.224 2 123339806.702 5  96108930.449 2        35.000 5
        16.000 2
 13 10 21  5 26 43.0000000  0  7G01G04G13G17G20G23G28
  24659750.096 6  24659765.836 3 129587859.648 6 100977553.548 3        37.000 6
        23.000 3
  21043707.300 8  21043717.660 6 110585429.644 8  86170465.035 6        51.000 8
        41.000 6
  22631595.070 7  22631606.550 5 118929842.701 7  92672605.837 5        46.000 7
        31.000 5
  20229155.726 9  20229164.946 8 106304931.131 9  82835010.984 8        54.000 9
        50.000 8
  22346945.132 7  22346954.312 5 117433990.074 7  91507005.496 5        44.000 7
        34.000 5
  22384284.692 8  22384292.652 6 117630210.045 8  91659904.463 6        48.000 8
        36.000 6
  23471411.984 6  23471440.424 2 123343061.479 6  96111466.582 2        36.000 6
        16.000 2
 13 10 21  5 26 44.0000000  0  7G01G04G13G17G20G23G28
  24660222.756 6  24660238.856 3 129590344.964 6 100979490.148 3        36.000 6
        22.000 3
  21043443.400 8  21043453.600 6 110584042.706 8  86169384.308 6        51.000 8
        41.000 6
  22631107.090 7  22631118.690 5 118927279.847 7  92670608.820 5        46.000 7
        31.000 5
  20229152.186 9  20229161.026 8 106304911.580 9  82834995.749 8        54.000 9
        50.000 8
  22347502.512 7  22347511.472 5 117436917.210 7  91509286.377 5        44.000 7
        34.000 5
  22384156.812 8  22384164.992 6 117629537.080 8  91659380.077 6        48.000 8
        36.000 6
  23472031.604 6  23472059.704 2 123346313.815 6  96114000.819 2        36.000 6
        15.000 2
 13 10 21  5 26 45.0000000  0  7G01G04G13G17G20G23G28
  24660695.476 6  24660712.476 3 129592834.855 6 100981430.319 3        36.000 6
        23.000 3
  21043180.280 8  21043191.000 6 110582660.535 8  86168307.293 6        52.000 8
        41.000 6
  22630620.670 7  22630632.330 5 118924721.874 7  92668615.600 5        46.000 7
        31.000 5
  20229149.186 9  20229158.466 8 106304897.107 9  82834984.476 8        55.000 9
        50.000 8
  22348060.512 7  22348069.352 5 117439849.086 7  91511570.962 5        45.000 7
        33.000 5
  22384029.232 8  22384037.532 6 117628869.202 8  91658859.650 6        48.000 8
        36.000 6
  23472650.664 6  23472679.344 2 123349570.731 6  96116538.634 2        36.000 6
        15.000 2
 13 10 21  5 26 46.0000000  0  7G01G04G13G17G20G23G28
  24661169.316 6  24661185.056 3 129595319.733 6 100983366.575 3        36.000 6
        23.000 3
  21042916.400 8  21042926.760 6 110581273.518 8  86167226.503 6        51.000 8
        41.000 6
  22630133.430 7  22630144.690 5 118922159.159 7  92666618.679 5        46.000 7
        31.000 5
  20229145.706 9  20229154.986 8 106304878.131 9  82834969.688 8        54.000 9
        50.000 8
  22348617.512 7  22348626.352 5 117442776.099 7  91513851.743 5        45.000 7
        33.000 5
  22383901.512 7  22383909.492 6 117628196.822 7  91658335.721 6        47.000 7
        36.000 6
  23473268.944 6  23473298.384 2 123352822.718 6  96119072.595 2        36.000 6
        15.000 2
 13 10 21  5 26 47.0000000  0  7G01G04G13G17G20G23G28
  24661642.696 6  24661658.316 3 129597805.643 6 100985303.652 3        37.000 6
        22.000 3
  21042652.640 8  21042663.120 6 110579887.702 8  86166146.646 6        51.000 8
        41.000 6
  22629645.570 7  22629656.770 5 118919597.802 7  92664622.823 5        46.000 7
        31.000 5
  20229142.326 9  20229151.346 8 106304860.700 9  82834956.103 8        54.000 9
        50.000 8
  22349174.872 7  22349183.632 5 117445704.320 7  91516133.470 5        44.000 7
        34.000 5
  22383774.172 7  22383781.912 6 117627525.994 7  91657812.999 6        47.000 7
        36.000 6
  23473888.084 6  23473917.444 2 123356075.761 6  96121607.376 2        36.000 6
        15.000 2
 13 10 21  5 26 48.0000000  0  7G01G04G13G17G20G23G28
  24662116.236 6  24662132.236 3 129600294.638 6 100987243.134 3        36.000 6
        22.000 3
  21042389.640 8  21042399.840 6 110578505.189 8  86165069.368 6        51.000 8
        41.000 6
  22629158.550 7  22629170.290 5 118917039.877 7  92662629.645 5        46.000 7
        32.000 5
  20229139.626 9  20229149.246 8 106304846.901 9  82834945.350 8        55.000 9
        50.000 8
  22349732.732 7  22349741.592 5 117448635.792 7  91518417.734 5        45.000 7
        33.000 5
  22383646.832 7  22383654.832 6 117626858.785 7  91657293.098 6        47.000 7
        36.000 6
  23474508.824 6  23474537.024 2 123359332.009 6  96124144.680 2        36.000 6
        15.000 2
 13 10 21  5 26 49.0000000  0  7G01G04G13G17G20G23G28
  24662589.776 6  24662605.256 3 129602780.630 6 100989180.273 3        36.000 6
        21.000 3
  21042125.880 8  21042136.520 6 110577119.859 8  86163989.890 6        51.000 8
        41.000 6
  22628671.870 7  22628683.010 5 118914479.248 7  92660634.353 5        47.000 7
        30.000 5
  20229136.566 9  20229145.786 8 106304830.602 9  82834932.652 8        55.000 9
        50.000 8
  22350289.972 7  22350298.752 5 117451564.460 7  91520699.821 5        44.000 7
        34.000 5
  22383519.352 7  22383527.232 6 117626189.113 7  91656771.280 6        47.000 7
        36.000 6
  23475126.904 6  23475156.164 2 123362585.231 6  96126679.629 2        36.000 6
        14.000 2
 13 10 21  5 26 50.0000000  0  7G01G04G13G17G20G23G28
  24663063.376 6  24663078.536 3 129605268.501 6 100991118.865 3        36.000 6
        22.000 3
  21041862.640 8  21041873.240 6 110575736.618 8  86162912.042 6        52.000 8
        41.000 6
  22628184.590 7  22628196.650 5 118911920.789 7  92658640.764 5        47.000 7
        31.000 5
  20229134.026 9  20229143.286 8 106304816.745 9  82834921.854 8        55.000 9
        50.000 8
  22350847.312 7  22350856.332 5 117454495.204 7  91522983.507 5        45.000 7
        32.000 5
  22383392.472 7  22383400.232 6 117625521.857 7  91656251.338 6        47.000 7
        36.000 6
  23475747.004 6  23475775.164 2 123365840.421 6  96129216.097 2        36.000 6
        14.000 2
 13 10 21  5 26 51.0000000  0  7G01G04G13G17G20G23G28
  24663535.156 6  24663551.736 3 129607755.302 6 100993056.638 3        36.000 6
        21.000 3
  21041599.660 8  21041609.820 6 110574352.458 8  86161833.473 6        52.000 8
        41.000 6
  22627697.350 7  22627709.270 5 118909361.582 7  92656646.576 5        47.000 7
        32.000 5
  20229131.246 9  20229140.486 8 106304802.283 9  82834910.585 8        55.000 9
        49.000 8
  22351404.892 7  22351413.832 5 117457425.010 7  91525266.470 5        44.000 7
        33.000 5
  22383265.532 8  22383273.592 5 117624854.013 8  91655730.944 5        48.000 8
        35.000 5
  23476365.824 5  23476394.984 2 123369094.599 5  96131751.767 2        35.000 5
        15.000 2
 13 10 21  5 26 52.0000000  0  7G01G04G13G17G20G23G28
  24664009.336 6  24664025.176 3 129610242.883 6 100994995.017 3        36.000 6
        22.000 3
  21041335.940 8  21041346.620 6 110572969.246 8  86160755.650 6        51.000 8
        41.000 6
  22627210.690 7  22627222.810 5 118906803.430 7  92654653.221 5        46.000 7
        31.000 5
  20229128.626 9  20229137.846 8 106304789.095 9  82834900.309 8        54.000 9
        50.000 8
  22351963.012 7  22351971.572 5 117460355.703 7  91527550.126 5        44.000 7
        33.000 5
  22383138.692 8  22383146.792 5 117624187.454 8  91655211.550 5        48.000 8
        35.000 5
  23476985.924 5  23477014.104 2 123372349.597 5  96134288.070 2        35.000 5
        14.000 2
 13 10 21  5 26 53.0000000  0  7G01G04G13G17G20G23G28
  24664482.196 6  24664498.236 3 129612730.207 6 100996933.188 3        36.000 6
        21.000 3
  21041072.940 8  21041083.280 6 110571586.023 8  86159677.816 6        51.000 8
        41.000 6
  22626724.270 7  22626736.170 5 118904245.390 7  92652659.945 5        46.000 7
        31.000 5
  20229126.266 9  20229135.366 8 106304776.236 9  82834890.289 8        54.000 9
        49.000 8
  22352520.472 7  22352529.472 5 117463286.381 7  91529833.769 5        45.000 7
        33.000 5
  22383011.612 7  22383020.192 6 117623521.218 7  91654692.403 6        47.000 7
        36.000 6
  23477605.104 6  23477633.744 2 123375604.384 6  96136824.278 2        36.000 6
        16.000 2
 13 10 21  5 26 54.0000000  0  7G01G04G13G17G20G23G28
  24664955.916 5  24664971.596 3 129615216.514 5 100998870.556 3        35.000 5
        21.000 3
  21040809.860 8  21040819.840 6 110570201.934 8  86158599.300 6        51.000 8
        40.000 6
  22626236.770 7  22626248.910 5 118901686.629 7  92650666.111 5        46.000 7
        31.000 5
  20229123.686 9  20229132.966 8 106304762.839 9  82834879.851 8        54.000 9
        50.000 8
  22353078.212 7  22353086.952 5 117466216.211 7  91532116.753 5        45.000 7
        33.000 5
  22382884.732 8  22382892.912 6 117622854.456 8  91654172.856 6        48.000 8
        36.000 6
  23478224.084 6  23478253.064 2 123378858.229 6  96139359.705 2        36.000 6
        16.000 2
 13 10 21  5 26 55.0000000  0  7G01G04G13G17G20G23G28
  24665428.676 5  24665445.016 3 129617704.618 5 101000809.338 3        35.000 5
        22.000 3
  21040546.120 8  21040556.920 6 110568819.846 8  86157522.351 6        52.000 8
        40.000 6
  22625750.690 7  22625762.370 5 118899129.957 7  92648673.912 5        46.000 7
        31.000 5
  20229121.646 9  20229130.946 8 106304751.792 9  82834871.240 8        54.000 9
        50.000 8
  22353635.892 7  22353644.372 5 117469148.003 7  91534401.269 5        45.000 7
        33.000 5
  22382758.632 8  22382766.552 6 117622190.057 8  91653655.147 6        48.000 8
        36.000 6
  23478844.104 6  23478872.944 2 123382113.878 6  96141896.548 2        36.000 6
        16.000 2
 13 10 21  5 26 56.0000000  0  7G01G04G13G17G20G23G28
  24665902.296 5  24665918.256 3 129620191.149 5 101002746.894 3        35.000 5
        21.000 3
  21040283.140 8  21040293.900 6 110567436.342 8  86156444.300 6        51.000 8
        40.000 6
  22625263.690 7  22625275.690 5 118896572.037 7  92646680.727 5        46.000 7
        31.000 5
  20229119.326 9  20229128.366 8 106304739.651 9  82834861.777 8        54.000 9
        50.000 8
  22354193.552 7  22354202.032 5 117472078.379 7  91536684.676 5        44.000 7
        34.000 5
  22382631.692 8  22382639.812 6 117621524.554 8  91653136.573 6        48.000 8
        36.000 6
  23479463.944 6  23479492.504 2 123385368.054 6  96144432.206 2        36.000 6
        16.000 2
 13 10 21  5 26 57.0000000  0  7G01G04G13G17G20G23G28
  24666376.136 5  24666391.716 3 129622679.918 5 101004686.205 3        35.000 5
        21.000 3
  21040020.380 8  21040030.860 6 110566055.253 8  86155368.129 6        51.000 8
        40.000 6
  22624776.750 7  22624789.110 5 118894016.660 7  92644689.537 5        46.000 7
        30.000 5
  20229117.666 9  20229126.686 8 106304730.286 9  82834854.480 8        54.000 9
        50.000 8
  22354751.672 7  22354760.732 5 117475011.143 7  91538969.949 5        45.000 7
        33.000 5
  22382505.632 8  22382513.932 6 117620861.823 8  91652620.157 6        48.000 8
        36.000 6
  23480082.784 6  23480112.164 2 123388624.434 6  96146969.583 2        36.000 6
        17.000 2
 13 10 21  5 26 58.0000000  0  7G01G04G13G17G20G23G28
  24666848.756 5  24666865.276 3 129625166.960 5 101006624.144 3        35.000 5
        21.000 3
  21039757.200 8  21039767.800 6 110564672.612 8  86154290.756 6        51.000 8
        40.000 6
  22624291.010 7  22624302.970 5 118891459.815 7  92642697.198 5        46.000 7
        31.000 5
  20229115.526 9  20229124.826 8 106304719.679 9  82834846.221 8        54.000 9
        49.000 8
  22355309.372 7  22355318.292 5 117477942.336 7  91541253.998 5        45.000 7
        33.000 5
  22382379.612 8  22382387.452 5 117620197.868 8  91652102.785 5        48.000 8
        35.000 5
  23480702.164 5  23480731.804 2 123391879.148 5  96149505.675 2        35.000 5
        16.000 2
 13 10 21  5 26 59.0000000  0  7G01G04G13G17G20G23G28
  24667322.116 5  24667338.176 3 129627654.250 5 101008562.306 3        35.000 5
        20.000 3
  21039494.020 8  21039504.460 6 110563290.521 8  86153213.799 6        50.000 8
        40.000 6
  22623804.550 7  22623816.410 5 118888903.642 7  92640705.373 5        46.000 7
        30.000 5
  20229113.746 9  20229123.206 8 106304709.939 9  82834838.631 8        54.000 9
        50.000 8
  22355867.512 7  22355876.272 5 117480874.037 7  91543538.438 5        45.000 7
        33.000 5
  22382253.452 7  22382261.472 6 117619534.764 7  91651586.091 6        47.000 7
        36.000 6
  23481321.444 6  23481350.764 2 123395134.308 6  96152042.153 2        36.000 6
        16.000 2
 13 10 21  5 27  0.0000000  0  7G01G04G13G17G20G23G28
  24667795.656 5  24667811.576 3 129630141.711 5 101010500.573 3        35.000 5
        20.000 3
  21039231.020 8  21039241.820 6 110561908.689 8  86152137.052 6        49.000 8
        40.000 6
  22623318.090 7  22623329.530 5 118886347.874 7  92638713.872 5        46.000 7
        30.000 5
  20229111.966 9  20229121.166 8 106304700.808 9  82834831.512 8        54.000 9
        50.000 8
  22356425.332 7  22356434.072 5 117483805.992 7  91545823.076 5        45.000 7
        34.000 5
  22382126.672 7  22382135.012 5 117618872.290 7  91651069.878 5        47.000 7
        35.000 5
  23481941.484 6  23481970.344 2 123398389.585 6  96154578.667 2        36.000 6
        15.000 2
 13 10 21  5 27  1.0000000  0  7G01G04G13G17G20G23G28
  24668268.336 5  24668285.076 3 129632627.705 5 101012437.719 3        34.000 5
        20.000 3
  21038967.980 8  21038978.520 6 110560525.592 8  86151059.319 6        48.000 8
        39.000 6
  22622831.650 7  22622843.730 5 118883790.952 7  92636721.476 5        45.000 7
        30.000 5
  20229110.046 8  20229118.906 8 106304690.737 8  82834823.662 8        52.000 8
        49.000 8
  22356982.952 7  22356991.632 5 117486736.670 7  91548106.721 5        44.000 7
        33.000 5
  22382001.152 7  22382009.132 5 117618208.887 7  91650552.944 5        47.000 7
        35.000 5
  23482559.924 5  23482589.504 2 123401643.437 5  96157114.063 2        35.000 5
        14.000 2
 13 10 21  5 27  2.0000000  0  7G01G04G13G17G20G23G28
  24668742.436 5  24668758.176 3 129635115.935 5 101014376.592 3        35.000 5
        20.000 3
  21038705.460 8  21038715.960 6 110559144.968 8  86149983.510 6        49.000 8
        40.000 6
  22622345.230 7  22622357.670 5 118881236.635 7  92634731.106 5        45.000 7
        31.000 5
  20229108.686 8  20229117.826 8 106304683.464 8  82834818.003 8        52.000 8
        50.000 8
  22357541.312 7  22357549.792 5 117489669.778 7  91550392.254 5        45.000 7
        33.000 5
  22381875.492 7  22381883.552 5 117617548.279 7  91650038.187 5        47.000 7
        35.000 5
  23483179.024 5  23483208.924 2 123404899.578 5  96159651.268 2        35.000 5
        14.000 2
 13 10 21  5 27  3.0000000  0  7G01G04G13G17G20G23G28
  24669215.396 5  24669231.956 3 129637604.555 5 101016315.766 3        35.000 5
        20.000 3
  21038443.000 8  21038453.020 6 110557764.896 8  86148908.129 6        49.000 8
        40.000 6
  22621859.090 7  22621871.510 5 118878683.016 7  92632741.286 5        45.000 7
        31.000 5
  20229107.246 8  20229116.626 8 106304677.103 8  82834813.044 8        52.000 8
        50.000 8
  22358099.312 7  22358108.272 5 117492603.452 7  91552678.236 5        45.000 7
        33.000 5
  22381749.672 7  22381757.832 5 117616888.580 7  91649524.132 5        47.000 7
        35.000 5
  23483799.464 5  23483829.184 2 123408156.226 5  96162188.875 2        35.000 5
        15.000 2
 13 10 21  5 27  4.0000000  0  7G01G04G13G17G20G23G28
  24669688.296 5  24669705.336 3 129640090.452 5 101018252.830 3        35.000 5
        20.000 3
  21038179.640 8  21038189.740 6 110556382.270 8  86147830.762 6        50.000 8
        40.000 6
  22621372.930 7  22621385.290 5 118876126.919 7  92630749.526 5        46.000 7
        31.000 5
  20229105.826 8  20229114.946 8 106304668.476 8  82834806.322 8        53.000 8
        50.000 8
  22358657.252 7  22358666.272 5 117495534.514 7  91554962.182 5        45.000 7
        33.000 5
  22381623.992 7  22381631.932 6 117616226.619 7  91649008.322 6        47.000 7
        36.000 6
  23484419.404 5  23484448.344 2 123411410.112 5  96164724.344 2        35.000 5
        15.000 2
 13 10 21  5 27  5.0000000  0  7G01G04G13G17G20G23G28
  24670162.116 5  24670178.676 3 129642579.489 5 101020192.344 3        35.000 5
        21.000 3
  21037917.220 8  21037927.720 6 110555002.968 8  86146755.979 6        50.000 8
        40.000 6
  22620886.990 7  22620899.570 5 118873574.309 7  92628760.492 5        46.000 7
        30.000 5
  20229104.826 9  20229114.006 8 106304663.539 9  82834802.475 8        54.000 9
        50.000 8
  22359215.612 7  22359224.372 5 117498468.894 7  91557248.706 5        45.000 7
        34.000 5
  22381498.492 7  22381506.812 6 117615568.339 7  91648495.383 6        47.000 7
        36.000 6
  23485039.204 6  23485068.344 2 123414667.236 6  96167262.362 2        36.000 6
        15.000 2
 13 10 21  5 27  6.0000000  0  7G01G04G13G17G20G23G28
  24670635.376 5  24670651.916 3 129645066.921 5 101022130.590 3        35.000 5
        20.000 3
  21037654.240 8  21037664.360 6 110553622.263 8  86145680.107 6        50.000 8
        40.000 6
  22620401.170 7  22620413.690 5 118871020.391 7  92626770.436 5        46.000 7
        31.000 5
  20229103.826 9  20229113.106 8 106304657.514 9  82834797.783 8        54.000 9
        50.000 8
  22359773.792 7  22359782.792 5 117501401.855 7  91559534.130 5        45.000 7
        33.000 5
  22381372.912 7  22381380.932 6 117614908.992 7  91647981.617 6        47.000 7
        36.000 6
  23485658.324 5  23485687.704 2 123417922.799 5  96169799.093 2        35.000 5
        15.000 2
 13 10 21  5 27  7.0000000  0  7G01G04G13G17G20G23G28
  24671108.856 6  24671125.296 3 129647553.963 6 101024068.547 3        36.000 6
        20.000 3
  21037391.700 8  21037402.100 6 110552241.352 8  86144604.077 6        51.000 8
        40.000 6
  22619915.450 7  22619927.850 5 118868466.407 7  92624780.321 5        46.000 7
        31.000 5
  20229102.546 9  20229111.766 8 106304651.652 9  82834793.213 8        54.000 9
        50.000 8
  22360331.792 7  22360340.452 5 117504334.612 7  91561819.391 5        45.000 7
        34.000 5
  22381247.712 7  22381255.552 6 117614249.801 7  91647467.957 6        47.000 7
        36.000 6
  23486277.704 6  23486307.404 2 123421178.012 6  96172335.576 2        36.000 6
        16.000 2
 13 10 21  5 27  8.0000000  0  7G01G04G13G17G20G23G28
  24671583.136 6  24671598.956 3 129650042.351 6 101026007.555 3        36.000 6
        20.000 3
  21037129.300 8  21037139.660 6 110550861.968 8  86143529.232 6        51.000 8
        41.000 6
  22619429.450 7  22619441.730 5 118865914.070 7  92622791.501 5        45.000 7
        31.000 5
  20229101.726 9  20229111.046 8 106304647.619 9  82834790.068 8        55.000 9
        50.000 8
  22360890.112 7  22360899.192 5 117507268.848 7  91564105.806 5        44.000 7
        33.000 5
  22381122.332 7  22381130.652 5 117613592.446 7  91646955.738 5        47.000 7
        35.000 5
  23486897.764 5  23486926.644 2 123424434.597 5  96174873.097 2        35.000 5
        16.000 2
 13 10 21  5 27  9.0000000  0  7G01G04G13G17G20G23G28
  24672055.836 6  24672072.036 3 129652528.511 6 101027944.804 3        36.000 6
        21.000 3
  21036866.320 8  21036876.920 6 110549480.543 8  86142452.801 6        51.000 8
        41.000 6
  22618943.770 7  22618955.890 5 118863359.829 7  92620801.195 5        45.000 7
        31.000 5
  20229100.746 9  20229109.706 8 106304641.881 9  82834785.603 8        55.000 9
        50.000 8
  22361448.172 7  22361457.032 5 117510201.060 7  91566390.647 5        45.000 7
        33.000 5
  22380997.032 7  22381005.092 5 117612933.385 7  91646442.183 5        47.000 7
        35.000 5
  23487516.784 5  23487546.444 2 123427689.069 5  96177409.037 2        35.000 5
        15.000 2
 13 10 21  5 27 10.0000000  0  7G01G04G13G17G20G23G28
  24672529.156 5  24672546.076 3 129655017.467 5 101029884.238 3        35.000 5
        21.000 3
  21036603.880 8  21036614.140 6 110548102.168 8  86141378.743 6        51.000 8
        41.000 6
  22618458.190 7  22618470.550 5 118860808.756 7  92618813.355 5        45.000 7
        31.000 5
  20229100.346 9  20229109.486 8 106304639.532 9  82834783.768 8        55.000 9
        50.000 8
  22362006.592 7  22362016.032 5 117513136.284 7  91568677.841 5        44.000 7
        33.000 5
  22380872.032 7  22380879.692 5 117612277.723 7  91645931.278 5        47.000 7
        35.000 5
  23488136.524 5  23488166.444 2 123430946.406 5  96179947.201 2        35.000 5
        15.000 2
 13 10 21  5 27 11.0000000  0  7G01G04G13G17G20G23G28
  24673003.796 6  24673020.116 3 129657507.132 6 101031824.241 3        36.000 6
        21.000 3
  21036341.880 8  21036352.200 6 110546724.608 8  86140305.326 6        51.000 8
        40.000 6
  22617972.270 7  22617985.090 5 118858258.590 7  92616826.220 5        45.000 7
        31.000 5
  20229099.926 9  20229109.146 8 106304638.315 9  82834782.826 8        55.000 9
        50.000 8
  22362565.332 7  22362574.572 5 117516072.254 7  91570965.603 5        45.000 7
        34.000 5
  22380747.312 7  22380755.792 5 117611623.189 7  91645421.255 5        47.000 7
        35.000 5
  23488756.484 5  23488786.144 2 123434204.436 5  96182485.880 2        35.000 5
        14.000 2
 13 10 21  5 27 12.0000000  0  7G01G04G13G17G20G23G28
  24673476.136 6  24673492.976 3 129659994.390 6 101033762.364 3        36.000 6
        21.000 3
  21036079.220 8  21036089.460 6 110545344.885 8  86139230.219 6        52.000 8
        41.000 6
  22617487.030 7  22617499.750 5 118855706.395 7  92614837.501 5        46.000 7
        32.000 5
  20229099.466 9  20229108.866 8 106304635.275 9  82834780.457 8        55.000 9
        50.000 8
  22363123.552 7  22363132.592 5 117519006.085 7  91573251.708 5        44.000 7
        34.000 5
  22380622.572 7  22380630.672 6 117610966.857 7  91644909.831 6        47.000 7
        36.000 6
  23489375.964 5  23489405.784 2 123437460.082 5  96185022.703 2        35.000 5
        15.000 2
 13 10 21  5 27 13.0000000  0  7G01G04G13G17G20G23G28
  24673949.656 6  24673965.956 3 129662480.295 6 101035699.433 3        36.000 6
        20.000 3
  21035816.540 8  21035826.960 6 110543963.980 8  86138154.193 6        51.000 8
        40.000 6
  22617000.990 7  22617013.590 5 118853153.157 7  92612847.972 5        46.000 7
        31.000 5
  20229098.986 9  20229107.826 8 106304631.376 9  82834777.417 8        55.000 9
        50.000 8
  22363681.452 7  22363690.552 5 117521938.710 7  91575536.860 5        44.000 7
        33.000 5
  22380497.472 7  22380505.752 6 117610309.649 7  91644397.729 6        47.000 7
        36.000 6
  23489996.124 5  23490024.564 2 123440714.479 5  96187558.555 2        35.000 5
        16.000 2
 13 10 21  5 27 14.0000000  0  7G01G04G13G17G20G23G28
  24674424.156 6  24674440.356 3 129664971.119 6 101037640.341 3        37.000 6
        20.000 3
  21035554.520 8  21035565.060 6 110542588.220 8  86137082.176 6        52.000 8
        41.000 6
  22616515.750 7  22616528.930 5 118850605.180 7  92610862.547 5        46.000 7
        31.000 5
  20229098.846 9  20229108.126 8 106304632.947 9  82834778.643 8        55.000 9
        50.000 8
  22364240.392 7  22364249.292 5 117524876.438 7  91577826.002 5        44.000 7
        33.000 5
  22380373.412 7  22380381.592 6 117609657.943 7  91643889.904 6        47.000 7
        36.000 6
  23490616.164 6  23490645.124 2 123443973.857 6  96190098.305 2        36.000 6
        16.000 2
 13 10 21  5 27 15.0000000  0  7G01G04G13G17G20G23G28
  24674897.536 6  24674913.696 3 129667457.699 6 101039577.942 3        36.000 6
        21.000 3
  21035292.080 8  21035302.500 6 110541208.345 8  86136006.945 6        51.000 8
        41.000 6
  22616030.750 7  22616043.090 5 118848053.219 7  92608874.014 5        46.000 7
        31.000 5
  20229098.626 9  20229107.706 8 106304630.753 9  82834776.930 8        55.000 9
        50.000 8
  22364798.352 7  22364808.032 5 117527810.072 7  91580111.949 5        45.000 7
        33.000 5
  22380248.692 7  22380257.012 6 117609002.459 7  91643379.137 6        47.000 7
        36.000 6
  23491235.124 6  23491264.684 2 123447229.038 6  96192634.764 2        36.000 6
        15.000 2
 13 10 21  5 27 16.0000000  0  7G01G04G13G17G20G23G28
  24675370.796 6  24675387.156 3 129669946.035 6 101041516.907 3        36.000 6
        21.000 3
  21035029.760 8  21035040.600 6 110539830.443 8  86134933.259 6        51.000 8
        40.000 6
  22615545.430 7  22615558.170 5 118845503.379 7  92606887.134 5        45.000 7
        32.000 5
  20229098.606 9  20229108.086 8 106304630.871 9  82834777.024 8        55.000 9
        50.000 8
  22365357.912 7  22365366.812 5 117530745.619 7  91582399.382 5        45.000 7
        33.000 5
  22380124.832 7  22380132.672 6 117608349.300 7  91642870.190 6        47.000 7
        36.000 6
  23491855.064 6  23491884.544 2 123450486.015 6  96195172.628 2        36.000 6
        15.000 2
 13 10 21  5 27 17.0000000  0  7G01G04G13G17G20G23G28
  24675843.396 6  24675860.076 3 129672433.553 6 101043455.224 3        36.000 6
        21.000 3
  21034767.360 8  21034777.540 6 110538451.897 8  86133859.062 6        51.000 8
        41.000 6
  22615059.990 7  22615072.810 5 118842953.023 7  92604899.852 5        45.000 7
        32.000 5
  20229098.406 9  20229107.566 8 106304630.677 9  82834776.870 8        55.000 9
        49.000 8
  22365915.972 7  22365925.152 5 117533680.535 7  91584686.322 5        45.000 7
        33.000 5
  22380000.432 7  22380008.572 6 117607695.833 7  91642360.996 6        47.000 7
        36.000 6
  23492475.084 5  23492504.304 2 123453742.211 5  96197709.875 2        35.000 5
        14.000 2
 13 10 21  5 27 18.0000000  0  7G01G04G13G17G20G23G28
  24676317.196 6  24676333.916 3 129674922.059 6 101045394.310 3        36.000 6
        21.000 3
  21034505.620 8  21034515.840 6 110537074.521 8  86132785.789 6        51.000 8
        40.000 6
  22614575.290 7  22614587.710 5 118840403.953 7  92602913.573 5        45.000 7
        32.000 5
  20229098.766 9  20229107.986 8 106304632.007 9  82834777.902 8        54.000 9
        50.000 8
  22366474.252 7  22366483.972 5 117536616.605 7  91586974.170 5        44.000 7
        33.000 5
  22379875.972 7  22379884.472 5 117607043.875 7  91641852.974 5        47.000 7
        35.000 5
  23493094.544 5  23493123.644 2 123456999.432 5  96200247.918 2        35.000 5
        14.000 2
 13 10 21  5 27 19.0000000  0  7G01G04G13G17G20G23G28
  24676789.896 6  24676806.896 3 129677406.603 6 101047330.318 3        37.000 6
        21.000 3
  21034242.460 8  21034253.160 6 110535693.385 8  86131709.579 6        51.000 8
        41.000 6
  22614089.790 7  22614101.970 5 118837851.230 7  92600924.449 5        46.000 7
        31.000 5
  20229098.706 9  20229107.306 8 106304629.873 9  82834776.246 8        54.000 9
        50.000 8
  22367032.912 7  22367041.892 5 117539548.865 7  91589259.056 5        44.000 7
        33.000 5
  22379751.472 7  22379759.472 6 117606388.473 7  91641342.271 6        47.000 7
        36.000 6
  23493714.244 5  23493742.724 2 123460252.761 5  96202782.912 2        35.000 5
        15.000 2
 13 10 21  5 27 20.0000000  0  7G01G04G13G17G20G23G28
  24677263.776 6  24677280.996 3 129679898.914 6 101049272.379 3        37.000 6
        21.000 3
  21033980.980 8  21033991.860 6 110534320.134 8  86130639.518 6        51.000 8
        40.000 6
  22613605.110 7  22613617.870 5 118835306.579 7  92598941.604 5        46.000 7
        31.000 5
  20229099.466 9  20229108.686 8 106304635.992 9  82834781.014 8        54.000 9
        50.000 8
  22367592.232 7  22367601.572 5 117542489.012 7  91591550.078 5        45.000 7
        33.000 5
  22379628.452 7  22379636.312 6 117605741.315 7  91640837.996 6        47.000 7
        36.000 6
  23494334.544 5  23494363.544 2 123463513.839 5  96205323.952 2        35.000 5
        14.000 2
 13 10 21  5 27 21.0000000  0  7G01G04G13G17G20G23G28
  24677738.256 6  24677753.876 3 129682386.220 6 101051210.533 3        37.000 6
        21.000 3
  21033718.960 8  21033729.800 6 110532942.190 8  86129565.795 6        51.000 8
        41.000 6
  22613120.290 7  22613132.910 5 118832757.306 7  92596955.166 5        46.000 7
        31.000 5
  20229099.626 9  20229109.026 8 106304637.729 9  82834782.364 8        54.000 9
        50.000 8
  22368150.912 7  22368159.692 5 117545424.438 7  91593837.419 5        45.000 7
        33.000 5
  22379504.692 7  22379512.632 6 117605089.777 7  91640330.311 6        47.000 7
        36.000 6
  23494953.824 5  23494983.164 2 123466770.080 5  96207861.268 2        35.000 5
        14.000 2
 13 10 21  5 27 22.0000000  0  7G01G04G13G17G20G23G28
  24678211.256 6  24678227.656 3 129684873.281 6 101053148.504 3        36.000 6
        21.000 3
  21033456.820 8  21033467.340 6 110531564.049 8  86128491.921 6        52.000 8
        40.000 6
  22612635.150 7  22612646.930 5 118830208.025 7  92594968.711 5        46.000 7
        31.000 5
  20229100.166 9  20229109.406 8 106304639.655 9  82834783.866 8        54.000 9
        50.000 8
  22368709.212 7  22368718.732 5 117548359.672 7  91596124.613 5        44.000 7
        32.000 5
  22379380.592 7  22379388.572 5 117604438.424 7  91639822.756 5        47.000 7
        35.000 5
  23495573.964 5  23495603.244 2 123470026.060 5  96210398.380 2        35.000 5
        16.000 2
 13 10 21  5 27 23.0000000  0  7G01G04G13G17G20G23G28
  24678683.976 6  24678700.616 3 129687360.182 6 101055086.345 3        36.000 6
        22.000 3
  21033194.580 8  21033205.100 6 110530185.981 8  86127418.107 6        52.000 8
        41.000 6
  22612150.110 7  22612162.410 5 118827658.934 7  92592982.416 5        46.000 7
        31.000 5
  20229100.806 9  20229109.686 8 106304641.975 9  82834785.670 8        54.000 9
        50.000 8
  22369267.752 7  22369276.672 5 117551294.957 7  91598411.851 5        45.000 7
        33.000 5
  22379256.552 7  22379264.552 5 117603787.485 7  91639315.535 5        47.000 7
        35.000 5
  23496193.704 5  23496222.544 2 123473281.870 5  96212935.348 2        35.000 5
        16.000 2
 13 10 21  5 27 24.0000000  0  7G01G04G13G17G20G23G28
  24679157.156 6  24679174.636 3 129689849.878 6 101057026.371 3        36.000 6
        21.000 3
  21032932.900 8  21032943.340 6 110528810.902 8  86126346.618 6        52.000 8
        40.000 6
  22611665.210 7  22611677.330 5 118825112.900 7  92590998.503 5        46.000 7
        31.000 5
  20229101.826 9  20229111.086 8 106304647.596 9  82834790.050 8        54.000 9
        49.000 8
  22369827.072 7  22369835.932 5 117554233.202 7  91600701.385 5        45.000 7
        32.000 5
  22379133.192 7  22379141.152 6 117603139.849 7  91638810.886 6        47.000 7
        36.000 6
  23496813.864 5  23496842.784 2 123476540.581 5  96215474.560 2        35.000 5
        16.000 2
 13 10 21  5 27 25.0000000  0  7G01G04G13G17G20G23G28
  24679631.456 6  24679647.716 3 129692337.420 6 101058964.711 3        36.000 6
        21.000 3
  21032670.740 8  21032681.520 6 110527433.919 8  86125273.645 6        52.000 8
        40.000 6
  22611181.110 7  22611192.890 5 118822565.133 7  92589013.240 5        46.000 7
        32.000 5
  20229102.606 9  20229111.486 8 106304651.650 9  82834793.213 8        54.000 9
        49.000 8
  22370385.852 7  22370394.652 5 117557169.490 7  91602989.403 5        45.000 7
        33.000 5
  22379009.352 7  22379017.432 6 117602490.645 7  91638305.013 6        47.000 7
        36.000 6
  23497433.204 5  23497462.684 2 123479797.242 5  96218012.152 2        34.000 5
        14.000 2
 13 10 21  5 27 26.0000000  0  7G01G04G13G17G20G23G28
  24680105.496 6  24680121.836 3 129694827.429 6 101060904.963 3        36.000 6
        21.000 3
  21032409.160 8  21032419.880 6 110526059.507 8  86124202.682 6        51.000 8
        40.000 6
  22610696.030 7  22610708.570 5 118820020.072 7  92587030.079 5        46.000 7
        31.000 5
  20229103.926 9  20229112.906 8 106304658.629 9  82834798.647 8        54.000 9
        49.000 8
  22370945.112 7  22370954.172 5 117560108.366 7  91605279.436 5        45.000 7
        33.000 5
  22378886.672 7  22378894.692 6 117601844.351 7  91637801.410 6        47.000 7
        36.000 6
  23498052.964 5  23498082.704 2 123483056.378 5  96220551.669 2        33.000 5
        15.000 2
 13 10 21  5 27 27.0000000  0  7G01G04G13G17G20G23G28
  24680578.696 6  24680594.776 3 129697315.063 6 101062843.388 3        37.000 6
        22.000 3
  21032147.300 8  21032157.960 6 110524682.932 8  86123130.028 6        52.000 8
        41.000 6
  22610212.190 7  22610224.030 5 118817472.964 7  92585045.324 5        47.000 7
        31.000 5
  20229105.026 9  20229114.146 8 106304663.771 9  82834802.654 8        54.000 9
        50.000 8
  22371503.792 7  22371512.892 5 117563045.048 7  91607567.756 5        44.000 7
        33.000 5
  22378763.112 7  22378771.632 5 117601196.227 7  91637296.382 5        47.000 7
        35.000 5
  23498673.344 5  23498702.584 2 123486313.165 5  96223089.374 2        34.000 5
        15.000 2
 13 10 21  5 27 28.0000000  0  7G01G04G13G17G20G23G28
  24681052.736 6  24681068.556 3 129699803.144 6 101064782.144 3        36.000 6
        21.000 3
  21031885.500 8  21031895.980 6 110523307.009 8  86122057.882 6        51.000 8
        40.000 6
  22609727.150 7  22609739.250 5 118814926.632 7  92583061.175 5        47.000 7
        31.000 5
  20229105.966 9  20229115.206 8 106304669.890 9  82834807.426 8        54.000 9
        50.000 8
  22372062.892 7  22372072.012 5 117565982.366 7  91609856.579 5        45.000 7
        33.000 5
  22378640.232 7  22378648.152 6 117600549.096 7  91636792.125 6        47.000 7
        36.000 6
  23499292.484 5  23499322.104 2 123489570.470 5  96225627.512 2        34.000 5
        14.000 2
 13 10 21  5 27 29.0000000  0  7G01G04G13G17G20G23G28
  24681526.196 6  24681541.856 3 129702290.074 6 101066720.017 3        37.000 6
        21.000 3
  21031623.200 8  21031634.120 6 110521930.134 8  86120984.997 6        51.000 8
        41.000 6
  22609242.530 7  22609254.470 5 118812379.521 7  92581076.424 5        47.000 7
        31.000 5
  20229107.426 9  20229115.966 8 106304675.408 9  82834811.722 8        55.000 9
        49.000 8
  22372621.692 7  22372630.872 5 117568918.717 7  91612144.639 5        45.000 7
        33.000 5
  22378517.252 7  22378525.332 5 117599901.357 7  91636287.403 5        47.000 7
        35.000 5
  23499912.784 5  23499942.004 2 123492826.734 5  96228164.793 2        34.000 5
        15.000 2
 13 10 21  5 27 30.0000000  0  7G01G04G13G17G20G23G28
  24681999.216 6  24682015.596 3 129704779.973 6 101068660.212 3        37.000 6
        21.000 3
  21031362.160 8  21031372.940 6 110520556.373 8  86119914.540 6        51.000 8
        41.000 6
  22608758.430 7  22608770.390 5 118809835.606 7  92579094.164 5        46.000 7
        31.000 5
  20229108.786 9  20229117.666 8 106304684.378 9  82834818.709 8        55.000 9
        49.000 8
  22373180.812 7  22373189.812 5 117571858.147 7  91614435.108 5        45.000 7
        33.000 5
  22378394.472 7  22378402.752 6 117599257.072 7  91635785.362 6        47.000 7
        36.000 6
  23500532.584 5  23500562.424 2 123496085.926 5  96230704.351 2        35.000 5
        14.000 2
 13 10 21  5 27 31.0000000  0  7G01G04G13G17G20G23G28
  24682472.516 6  24682489.236 3 129707268.405 6 101070599.245 3        37.000 6
        21.000 3
  21031100.140 8  21031110.920 6 110519181.362 8  86118843.103 6        51.000 8
        40.000 6
  22608274.190 7  22608286.090 5 118807290.566 7  92577111.020 5        46.000 7
        31.000 5
  20229110.386 9  20229119.506 8 106304692.408 9  82834824.968 8        55.000 9
        49.000 8
  22373739.972 7  22373749.252 5 117574796.306 7  91616724.584 5        45.000 7
        33.000 5
  22378271.592 7  22378279.472 6 117598611.856 7  91635282.592 6        47.000 7
        36.000 6
  23501153.304 5  23501181.984 2 123499343.745 5  96233242.922 2        35.000 5
        15.000 2
 13 10 21  5 27 32.0000000  0  7G01G04G13G17G20G23G28
  24682945.936 6  24682962.356 3 129709756.347 6 101072537.898 3        37.000 6
        21.000 3
  21030838.580 8  21030848.940 6 110517806.064 8  86117771.440 6        51.000 8
        41.000 6
  22607790.050 7  22607801.530 5 118804745.384 7  92575127.774 5        46.000 7
        31.000 5
  20229111.926 9  20229121.146 8 106304700.503 9  82834831.274 8        55.000 9
        49.000 8
  22374299.192 7  22374308.332 5 117577734.173 7  91619013.827 5        45.000 7
        33.000 5
  22378148.552 7  22378156.812 6 117597966.726 7  91634779.896 6        47.000 7
        36.000 6
  23501772.984 5  23501801.924 2 123502601.108 5  96235781.106 2        34.000 5
        15.000 2
 13 10 21  5 27 33.0000000  0  7G01G04G13G17G20G23G28
  24683419.516 6  24683436.116 3 129712246.330 6 101074478.126 3        37.000 6
        21.000 3
  21030577.400 8  21030587.920 6 110516432.965 8  86116701.499 6        51.000 8
        41.000 6
  22607305.610 7  22607317.970 5 118802202.528 7  92573146.332 5        46.000 7
        32.000 5
  20229113.786 9  20229122.966 8 106304711.134 9  82834839.562 8        55.000 9
        49.000 8
  22374858.432 7  22374867.812 5 117580674.194 7  91621304.747 5        46.000 7
        33.000 5
  22378026.612 7  22378034.312 6 117597324.112 7  91634279.153 6        47.000 7
        36.000 6
  23502392.704 5  23502422.664 2 123505860.528 5  96238320.906 2        34.000 5
        15.000 2
 13 10 21  5 27 34.0000000  0  7G01G04G13G17G20G23G28
  24683892.896 6  24683909.136 3 129714733.367 6 101076416.067 3        36.000 6
        20.000 3
  21030315.720 8  21030326.100 6 110515057.139 8  86115629.423 6        49.000 8
        40.000 6
  22606821.050 7  22606833.570 5 118799657.080 7  92571162.872 5        46.000 7
        31.000 5
  20229115.586 8  20229124.486 8 106304719.356 8  82834845.969 8        52.000 8
        49.000 8
  22375417.852 7  22375426.752 5 117583611.499 7  91623593.552 5        45.000 7
        32.000 5
  22377903.732 7  22377911.912 5 117596679.101 7  91633776.555 5        47.000 7
        35.000 5
  23503013.044 5  23503042.104 2 123509117.139 5  96240858.490 2        34.000 5
        15.000 2
 13 10 21  5 27 35.0000000  0  7G01G04G13G17G20G23G28
  24684366.776 6  24684383.216 3 129717223.277 6 101078356.265 3        36.000 6
        21.000 3
  21030054.160 8  21030064.640 6 110513684.290 8  86114559.674 6        49.000 8
        40.000 6
  22606337.350 7  22606349.810 5 118797114.686 7  92569181.794 5        46.000 7
        32.000 5
  20229117.606 8  20229126.646 8 106304730.877 8  82834854.951 8        52.000 8
        49.000 8
  22375976.772 7  22375986.052 5 117586551.707 7  91625884.621 5        45.000 7
        32.000 5
  22377781.652 7  22377789.652 5 117596037.401 7  91633276.533 5        47.000 7
        35.000 5
  23503633.584 5  23503662.424 2 123512376.496 5  96243398.230 2        34.000 5
        15.000 2
 13 10 21  5 27 36.0000000  0  7G01G04G13G17G20G23G28
  24684839.716 6  24684856.796 3 129719709.928 6 101080293.931 3        36.000 6
        21.000 3
  21029792.660 8  21029803.080 6 110512308.474 8  86113487.614 6        49.000 8
        40.000 6
  22605852.970 7  22605864.930 5 118794569.507 7  92567198.546 5        46.000 7
        32.000 5
  20229119.426 8  20229128.386 8 106304739.769 8  82834861.879 8        52.000 8
        49.000 8
  22376536.312 7  22376544.932 5 117589488.954 7  91628173.385 5        45.000 7
        32.000 5
  22377658.932 7  22377666.952 5 117595393.081 7  91632774.474 5        47.000 7
        35.000 5
  23504253.564 5  23504281.704 2 123515632.776 5  96245935.511 2        34.000 5
        15.000 2
 13 10 21  5 27 37.0000000  0  7G01G04G13G17G20G23G28
  24685314.316 6  24685330.216 3 129722200.237 6 101082234.456 3        36.000 6
        21.000 3
  21029531.700 8  21029542.180 6 110510936.479 8  86112418.531 6        50.000 8
        40.000 6
  22605370.050 7  22605382.210 5 118792028.245 7  92565218.350 5        46.000 7
        32.000 5
  20229121.886 8  20229130.926 8 106304752.815 8  82834872.040 8        53.000 8
        49.000 8
  22377095.712 7  22377105.072 5 117592430.003 7  91630465.109 5        45.000 7
        32.000 5
  22377536.932 7  22377545.272 5 117594752.931 7  91632275.654 5        47.000 7
        35.000 5
  23504873.404 5  23504902.824 2 123518892.719 5  96248475.655 2        35.000 5
        15.000 2
 13 10 21  5 27 38.0000000  0  7G01G04G13G17G20G23G28
  24685787.456 6  24685803.956 3 129724689.318 6 101084173.992 3        36.000 6
        20.000 3
  21029270.440 8  21029281.160 6 110509563.467 8  86111348.652 6        50.000 8
        40.000 6
  22604885.530 7  22604897.750 5 118789486.112 7  92563237.469 5        46.000 7
        33.000 5
  20229124.266 8  20229133.566 8 106304765.188 8  82834881.682 8        53.000 8
        49.000 8
  22377655.132 7  22377664.332 5 117595369.995 7  91632756.015 5        45.000 7
        32.000 5
  22377415.192 7  22377423.132 5 117594112.061 7  91631776.277 5        47.000 7
        35.000 5
  23505494.024 5  23505522.384 2 123522151.590 5  96251014.996 2        35.000 5
        16.000 2
 13 10 21  5 27 39.0000000  0  7G01G04G13G17G20G23G28
  24686260.896 6  24686277.156 3 129727176.729 6 101086112.220 3        36.000 6
        21.000 3
  21029008.780 8  21029019.200 6 110508188.915 8  86110277.574 6        51.000 8
        40.000 6
  22604401.730 7  22604413.990 5 118786942.567 7  92561255.490 5        46.000 7
        32.000 5
  20229126.406 9  20229135.366 8 106304776.349 9  82834890.381 8        54.000 9
        50.000 8
  22378214.432 7  22378223.412 5 117598308.461 7  91635045.724 5        45.000 7
        33.000 5
  22377293.152 7  22377301.372 5 117593470.027 7  91631275.988 5        47.000 7
        35.000 5
  23506114.404 5  23506142.464 2 123525408.698 5  96253552.900 2        35.000 5
        15.000 2
 13 10 21  5 27 40.0000000  0  7G01G04G13G17G20G23G28
  24686734.036 6  24686750.276 3 129729664.229 6 101088050.530 3        36.000 6
        21.000 3
  21028747.360 8  21028757.580 6 110506814.647 8  86109206.720 6        51.000 8
        40.000 6
  22603917.910 7  22603929.350 5 118784399.455 7  92559273.849 5        45.000 7
        32.000 5
  20229128.646 9  20229137.726 8 106304788.142 9  82834899.572 8        54.000 9
        50.000 8
  22378773.572 7  22378782.672 5 117601247.156 7  91637335.614 5        45.000 7
        33.000 5
  22377171.072 7  22377178.792 5 117592828.621 7  91630776.190 5        47.000 7
        35.000 5
  23506733.744 5  23506762.164 2 123528665.953 5  96256090.938 2        34.000 5
        14.000 2
 13 10 21  5 27 41.0000000  0  7G01G04G13G17G20G23G28
  24687208.916 6  24687224.476 3 129732156.080 6 101089992.226 3        36.000 6
        21.000 3
  21028486.360 8  21028497.120 6 110505444.909 8  86108139.392 6        51.000 8
        40.000 6
  22603434.310 7  22603446.830 5 118781860.968 7  92557295.817 5        46.000 7
        32.000 5
  20229131.806 9  20229140.766 8 106304804.789 9  82834912.545 8        54.000 9
        49.000 8
  22379333.672 7  22379342.632 5 117604190.373 7  91639629.030 5        45.000 7
        33.000 5
  22377049.752 7  22377058.092 5 117592192.049 7  91630280.166 5        47.000 7
        35.000 5
  23507354.424 5  23507382.884 2 123531927.603 5  96258632.454 2        35.000 5
        14.000 2
 13 10 21  5 27 42.0000000  0  6G01G04G13G17G20G23
  24687682.196 6  24687697.856 3 129734643.225 6 101091930.257 3        37.000 6
        21.000 3
  21028225.000 8  21028235.280 6 110504070.696 8  86107068.581 6        52.000 8
        40.000 6
  22602950.490 7  22602962.850 5 118779318.172 7  92555314.420 5        45.000 7
        32.000 5
  20229134.026 9  20229142.866 8 106304817.291 9  82834922.288 8        54.000 9
        50.000 8
  22379893.272 7  22379901.752 5 117607129.109 7  91641918.954 5        46.000 7
        33.000 5
  22376928.092 7  22376935.792 5 117591551.371 7  91629780.942 5        47.000 7
        35.000 5
 13 10 21  5 27 43.0000000  0  6G01G04G13G17G20G23
  24688155.396 6  24688171.156 3 129737132.099 6 101093869.643 3        36.000 6
        20.000 3
  21027963.900 8  21027974.340 6 110502698.331 8  86105999.205 6        52.000 8
        40.000 6
  22602467.390 7  22602479.090 5 118776777.342 7  92553334.564 5        45.000 7
        31.000 5
  20229136.866 9  20229145.686 8 106304831.963 9  82834933.719 8        54.000 9
        49.000 8
  22380452.232 7  22380461.352 5 117610069.638 7  91644210.280 5        45.000 7
        33.000 5
  22376806.432 7  22376814.492 5 117590912.863 7  91629283.406 5        47.000 7
        35.000 5
 13 10 21  5 27 44.0000000  0  7G01G04G13G17G20G23G28
  24688629.556 6  24688644.896 3 129739620.361 6 101095808.561 3        37.000 6
        20.000 3
  21027702.820 8  21027713.380 6 110501325.605 8  86104929.551 6        52.000 8
        41.000 6
  22601983.690 7  22601995.690 5 118774236.296 7  92551354.534 5        46.000 7
        32.000 5
  20229139.786 9  20229148.906 8 106304846.656 9  82834945.166 8        54.000 9
        49.000 8
  22381012.232 7  22381020.812 5 117613009.838 7  91646501.343 5        45.000 7
        32.000 5
  22376685.192 7  22376692.792 5 117590274.342 7  91628785.863 5        47.000 7
        35.000 5
  23509214.444 6  23509243.184 2 123541701.686 6  96266248.601 2        36.000 6
        14.000 2
 13 10 21  5 27 45.0000000  0  7G01G04G13G17G20G23G28
  24689103.496 6  24689118.956 3 129742110.541 6 101097748.945 3        36.000 6
        21.000 3
  21027441.880 8  21027452.060 6 110499954.958 8  86103861.512 6        52.000 8
        41.000 6
  22601500.350 7  22601512.490 5 118771697.420 7  92549376.195 5        46.000 7
        32.000 5
  20229142.986 9  20229152.026 8 106304863.712 9  82834958.458 8        54.000 9
        49.000 8
  22381571.832 7  22381580.652 5 117615952.046 7  91648793.972 5        45.000 7
        33.000 5
  22376563.572 7  22376571.812 5 117589638.213 7  91628290.180 5        47.000 7
        35.000 5
  23509835.484 5  23509863.624 2 123544961.836 5  96268788.943 2        35.000 5
        16.000 2
 13 10 21  5 27 46.0000000  0  7G01G04G13G17G20G23G28
  24689576.516 6  24689592.616 3 129744600.385 6 101099689.095 3        36.000 6
        20.000 3
  21027180.640 8  21027191.400 6 110498584.211 8  86102793.405 6        51.000 8
        41.000 6
  22601017.850 7  22601029.630 5 118769158.602 7  92547397.900 5        46.000 7
        32.000 5
  20229146.066 9  20229155.066 8 106304881.035 9  82834971.958 8        54.000 9
        49.000 8
  22382131.932 7  22382141.152 5 117618894.130 7  91651086.499 5        45.000 7
        33.000 5
  22376443.172 7  22376451.172 5 117589002.356 7  91627794.709 5        47.000 7
        35.000 5
  23510455.044 6  23510484.304 2 123548221.823 6  96271329.159 2        36.000 6
        16.000 2
 13 10 21  5 27 47.0000000  0  7G01G04G13G17G20G23G28
  24690049.916 6  24690066.116 3 129747088.755 6 101101628.082 3        36.000 6
        19.000 3
  21026919.620 8  21026930.580 6 110497212.111 8  86101724.236 6        51.000 8
        41.000 6
  22600534.350 7  22600545.910 5 118766618.572 7  92545418.666 5        46.000 7
        32.000 5
  20229149.326 9  20229158.266 8 106304897.320 9  82834984.644 8        54.000 9
        49.000 8
  22382691.272 7  22382700.672 5 117621834.843 7  91653377.963 5        45.000 7
        33.000 5
  22376321.732 7  22376329.652 5 117588365.475 7  91627298.442 5        47.000 7
        35.000 5
  23511076.364 6  23511104.204 2 123551480.311 6  96273868.217 2        36.000 6
        16.000 2
 13 10 21  5 27 48.0000000  0  7G01G04G13G17G20G23G28
  24690523.336 6  24690539.596 3 129749578.044 6 101103567.790 3        36.000 6
        20.000 3
  21026658.760 8  21026669.580 6 110495841.132 8  86100655.946 6        51.000 8
        40.000 6
  22600050.730 7  22600062.550 5 118764079.781 7  92543440.393 5        46.000 7
        31.000 5
  20229152.726 9  20229161.526 8 106304915.064 9  82834998.473 8        54.000 9
        49.000 8
  22383250.872 7  22383260.232 5 117624776.667 7  91655670.294 5        45.000 7
        33.000 5
  22376200.972 7  22376208.712 6 117587730.049 7  91626803.311 6        47.000 7
        36.000 6
  23511696.304 5  23511724.324 2 123554739.744 5  96276407.935 2        35.000 5
        16.000 2
 13 10 21  5 27 49.0000000  0  7G01G04G13G17G20G23G28
  24690997.936 6  24691013.596 3 129752067.543 6 101105507.656 3        36.000 6
        21.000 3
  21026397.960 8  21026408.160 6 110494470.632 8  86099588.032 6        51.000 8
        40.000 6
  22599568.010 7  22599579.510 5 118761541.564 7  92541462.577 5        45.000 7
        31.000 5
  20229156.106 9  20229165.386 8 106304933.614 9  82835012.927 8        54.000 9
        49.000 8
  22383810.692 7  22383819.932 5 117627718.911 7  91657962.950 5        45.000 7
        32.000 5
  22376080.032 8  22376088.312 6 117587095.414 8  91626308.784 6        48.000 8
        36.000 6
  23512316.764 6  23512344.864 2 123557999.463 6  96278947.908 2        36.000 6
        15.000 2
 13 10 21  5 27 50.0000000  0  7G01G04G13G17G20G23G28
  24691471.796 6  24691487.416 3 129754557.831 6 101107448.150 3        36.000 6
        21.000 3
  21026137.280 8  21026147.820 6 110493101.023 8  86098520.806 6        51.000 8
        40.000 6
  22599085.110 7  22599096.830 5 118759004.407 7  92539485.573 5        46.000 7
        32.000 5
  20229159.946 9  20229169.106 8 106304953.402 9  82835028.342 8        54.000 9
        49.000 8
  22384370.692 7  22384380.212 5 117630662.044 7  91660256.294 5        45.000 7
        33.000 5
  22375959.312 8  22375967.872 5 117586462.032 8  91625815.246 5        48.000 8
        35.000 5
  23512937.144 5  23512965.324 2 123561259.963 5  96281488.482 2        35.000 5
        15.000 2
 13 10 21  5 27 51.0000000  0  7G01G04G13G17G20G23G28
  24691944.476 5  24691961.076 3 129757045.872 5 101109386.859 3        35.000 5
        21.000 3
  21025876.680 8  21025886.820 6 110491729.388 8  86097451.995 6        52.000 8
        41.000 6
  22598602.330 7  22598613.910 5 118756465.329 7  92537507.075 5        46.000 7
        32.000 5
  20229163.386 9  20229172.586 8 106304971.498 9  82835042.441 8        55.000 9
        50.000 8
  22384930.632 7  22384939.912 5 117633603.135 7  91662548.055 5        45.000 7
        33.000 5
  22375838.732 7  22375846.972 5 117585826.967 7  91625320.394 5        47.000 7
        35.000 5
  23513556.024 5  23513585.304 2 123564518.295 5  96284027.405 2        35.000 5
        15.000 2
 13 10 21  5 27 52.0000000  0  7G01G04G13G17G20G23G28
  24692418.036 6  24692433.996 3 129759532.841 6 101111324.749 3        36.000 6
        21.000 3
  21025615.320 8  21025625.160 6 110490356.799 8  86096382.445 6        51.000 8
        40.000 6
  22598118.850 7  22598130.630 5 118753925.449 7  92535527.962 5        46.000 7
        31.000 5
  20229166.746 9  20229175.826 8 106304988.976 9  82835056.066 8        55.000 9
        49.000 8
  22385490.492 7  22385499.352 5 117636543.235 7  91664839.042 5        45.000 7
        33.000 5
  22375718.192 7  22375725.932 5 117585191.268 7  91624825.044 5        47.000 7
        35.000 5
  23514176.044 5  23514205.004 2 123567775.561 5  96286565.501 2        35.000 5
        14.000 2
 13 10 21  5 27 53.0000000  0  7G01G04G13G17G20G23G28
  24692892.116 5  24692908.356 3 129762024.742 5 101113266.481 3        35.000 5
        21.000 3
  21025355.060 8  21025365.500 6 110488989.399 8  86095316.945 6        52.000 8
        41.000 6
  22597636.450 7  22597648.190 5 118751390.870 7  92533552.965 5        46.000 7
        30.000 5
  20229171.306 9  20229180.166 8 106305011.972 9  82835073.985 8        55.000 9
        49.000 8
  22386050.492 7  22386059.892 5 117639488.538 7  91667134.081 5        45.000 7
        34.000 5
  22375597.672 7  22375606.232 6 117584561.113 7  91624334.016 6        47.000 7
        36.000 6
  23514796.704 5  23514825.644 2 123571037.863 5  96289107.529 2        35.000 5
        15.000 2
 13 10 21  5 27 54.0000000  0  7G01G04G13G17G20G23G28
  24693366.296 5  24693381.376 3 129764512.256 5 101115204.810 3        35.000 5
        22.000 3
  21025094.200 8  21025103.920 6 110487617.806 8  86094248.169 6        51.000 8
        41.000 6
  22597153.490 7  22597165.050 5 118748852.249 7  92531574.829 5        46.000 7
        31.000 5
  20229174.746 9  20229183.906 8 106305031.113 9  82835088.897 8        55.000 9
        49.000 8
  22386610.292 7  22386619.892 5 117642429.584 7  91669425.802 5        45.000 7
        33.000 5
  22375477.232 7  22375485.172 6 117583927.085 7  91623839.967 6        47.000 7
        36.000 6
  23515417.024 5  23515445.804 2 123574295.788 5  96291646.165 2        35.000 5
        14.000 2
 13 10 21  5 27 55.0000000  0  7G01G04G13G17G20G23G28
  24693839.956 6  24693855.796 3 129767003.056 6 101117145.697 3        36.000 6
        22.000 3
  21024833.840 8  21024844.140 6 110486249.634 8  86093182.063 6        51.000 8
        41.000 6
  22596670.770 7  22596683.030 5 118746317.159 7  92529599.441 5        46.000 7
        31.000 5
  20229179.086 9  20229188.246 8 106305054.023 9  82835106.746 8        55.000 9
        49.000 8
  22387170.772 7  22387179.872 5 117645374.057 7  91671720.190 5        45.000 7
        33.000 5
  22375357.372 7  22375365.512 6 117583296.840 7  91623348.871 6        47.000 7
        36.000 6
  23516037.744 5  23516066.284 2 123577557.050 5  96294187.392 2        35.000 5
        13.000 2
 13 10 21  5 27 56.0000000  0  7G01G04G13G17G20G23G28
  24694314.196 6  24694329.496 3 129769492.970 6 101119085.906 3        36.000 6
        21.000 3
  21024573.340 8  21024583.560 6 110484880.805 8  86092115.451 6        51.000 8
        41.000 6
  22596188.130 7  22596199.990 5 118743781.576 7  92527623.672 5        46.000 7
        31.000 5
  20229183.506 9  20229192.466 8 106305076.585 9  82835124.337 8        55.000 9
        49.000 8
  22387730.492 7  22387740.092 5 117648317.849 7  91674014.054 5        45.000 7
        33.000 5
  22375237.092 8  22375245.732 6 117582666.260 8  91622857.516 6        48.000 8
        36.000 6
  23516657.324 5  23516686.824 2 123580817.497 5  96296727.984 2        35.000 5
        14.000 2
 13 10 21  5 27 57.0000000  0  7G01G04G13G17G20G23G28
  24694787.436 6  24694803.256 3 129771980.147 6 101121023.952 3        37.000 6
        22.000 3
  21024312.500 8  21024322.200 6 110483509.361 8  86091046.796 6        52.000 8
        41.000 6
  22595705.390 7  22595717.150 5 118741243.491 7  92525645.949 5        46.000 7
        31.000 5
  20229187.366 9  20229196.226 8 106305096.888 9  82835140.154 8        55.000 9
        50.000 8
  22388290.132 7  22388299.812 5 117651258.992 7  91676305.852 5        45.000 7
        33.000 5
  22375116.992 8  22375125.212 6 117582033.412 8  91622364.391 6        48.000 8
        36.000 6
  23517278.164 5  23517307.324 2 123584075.160 5  96299266.350 2        35.000 5
        15.000 2
 13 10 21  5 27 58.0000000  0  7G01G04G13G17G20G23G28
  24695260.596 6  24695277.176 3 129774471.972 6 101122965.638 3        36.000 6
        21.000 3
  21024052.360 8  21024062.220 6 110482142.839 8  86089981.974 6        52.000 8
        41.000 6
  22595223.470 7  22595235.170 5 118738710.459 7  92523672.164 5        45.000 7
        31.000 5
  20229191.966 9  20229201.266 8 106305122.425 9  82835160.046 8        55.000 9
        49.000 8
  22388850.832 7  22388860.412 5 117654205.036 7  91678601.470 5        45.000 7
        33.000 5
  22374997.292 8  22375005.692 6 117581405.826 8  91621875.360 6        48.000 8
        36.000 6
  23517898.724 5  23517928.244 2 123587337.591 5  96301808.441 2        34.000 5
        15.000 2
 13 10 21  5 27 59.0000000  0  7G01G04G13G17G20G23G28
  24695735.056 6  24695751.256 3 129776963.747 6 101124907.276 3        36.000 6
        21.000 3
  21023792.180 8  21023802.860 6 110480776.425 8  86088917.239 6        51.000 8
        40.000 6
  22594741.470 7  22594753.410 5 118736177.679 7  92521698.579 5        45.000 7
        31.000 5
  20229197.086 9  20229206.446 8 106305148.419 9  82835180.306 8        55.000 9
        49.000 8
  22389411.632 7  22389421.372 5 117657151.151 7  91680897.140 5        45.000 7
        33.000 5
  22374878.232 8  22374886.912 6 117580778.680 8  91621386.681 6        48.000 8
        37.000 6
  23518519.624 5  23518549.444 2 123590600.043 5  96304350.611 2        34.000 5
        16.000 2
 13 10 21  5 28  0.0000000  0  7G01G04G13G17G20G23G28
  24696208.016 6  24696224.336 3 129779449.313 6 101126844.087 3        36.000 6
        21.000 3
  21023531.080 8  21023541.480 6 110479404.020 8  86087847.835 6        51.000 8
        40.000 6
  22594258.810 7  22594270.070 5 118733639.016 7  92519720.409 5        46.000 7
        30.000 5
  20229201.126 9  20229209.946 8 106305168.751 9  82835196.146 8        55.000 9
        49.000 8
  22389971.492 7  22389981.392 5 117660091.257 7  91683188.133 5        45.000 7
        33.000 5
  22374757.892 8  22374766.112 6 117580145.892 8  91620893.599 6        48.000 8
        36.000 6
  23519138.964 5  23519168.624 2 123593856.286 5  96306887.821 2        33.000 5
        15.000 2
 13 10 21  5 28  1.0000000  0  7G01G04G13G17G20G23G28
  24696682.836 5  24696698.516 3 129781941.004 5 101128785.662 3        35.000 5
        22.000 3
  21023271.080 8  21023281.300 6 110478037.881 8  86086783.311 6        49.000 8
        40.000 6
  22593776.170 7  22593788.390 5 118731106.774 7  92517747.240 5        45.000 7
        30.000 5
  20229206.066 8  20229215.286 8 106305195.693 8  82835217.141 8        52.000 8
        49.000 8
  22390531.872 7  22390541.712 5 117663037.621 7  91685483.996 5        45.000 7
        33.000 5
  22374638.512 8  22374646.692 6 117579519.715 8  91620405.673 6        48.000 8
        36.000 6
  23519760.684 5  23519789.604 2 123597118.680 5  96309429.897 2        34.000 5
        16.000 2
 13 10 21  5 28  2.0000000  0  7G01G04G13G17G20G23G28
  24697155.736 6  24697171.596 3 129784429.050 6 101130724.394 3        36.000 6
        21.000 3
  21023010.340 8  21023020.520 6 110476668.304 8  86085716.108 6        49.000 8
        40.000 6
  22593294.230 7  22593305.450 5 118728571.228 7  92515771.491 5        45.000 7
        31.000 5
  20229210.766 8  20229220.006 8 106305219.538 8  82835235.725 8        52.000 8
        49.000 8
  22391092.192 7  22391101.672 5 117665980.506 7  91687777.153 5        45.000 7
        32.000 5
  22374518.832 7  22374527.212 5 117578890.430 7  91619915.327 5        47.000 7
        35.000 5
  23520380.404 5  23520409.964 2 123600377.533 5  96311969.230 2        34.000 5
        15.000 2
 13 10 21  5 28  3.0000000  0  7G01G04G13G17G20G23G28
  24697629.536 6  24697646.056 3 129786920.279 6 101132665.607 3        36.000 6
        22.000 3
  21022750.640 8  21022760.600 6 110475302.113 8  86084651.552 6        49.000 8
        41.000 6
  22592811.790 7  22592823.410 5 118726039.183 7  92513798.478 5        45.000 7
        30.000 5
  20229215.826 8  20229225.246 8 106305247.080 8  82835257.184 8        52.000 8
        49.000 8
  22391652.672 7  22391662.132 5 117668926.774 7  91690072.946 5        45.000 7
        32.000 5
  22374399.472 7  22374408.212 5 117578264.889 7  91619427.893 5        47.000 7
        35.000 5
  23521001.364 5  23521030.424 2 123603639.625 5  96314511.089 2        34.000 5
        15.000 2
 13 10 21  5 28  4.0000000  0  7G01G04G13G17G20G23G28
  24698103.756 6  24698120.076 3 129789409.891 6 101134605.573 3        36.000 6
        21.000 3
  21022490.140 8  21022500.200 6 110473934.450 8  86083585.843 6        50.000 8
        40.000 6
  22592330.030 7  22592341.690 5 118723505.810 7  92511824.431 5        45.000 7
        31.000 5
  20229220.766 8  20229229.806 8 106305273.502 8  82835277.773 8        53.000 8
        50.000 8
  22392212.832 7  22392222.672 5 117671871.538 7  91692367.569 5        46.000 7
        33.000 5
  22374280.392 7  22374289.012 6 117577638.179 7  91618939.549 6        47.000 7
        36.000 6
  23521621.444 5  23521651.364 2 123606900.083 5  96317051.661 2        34.000 5
        14.000 2
 13 10 21  5 28  5.0000000  0  7G01G04G13G17G20G23G28
  24698576.996 6  24698593.616 3 129791899.856 6 101136545.801 3        37.000 6
        22.000 3
  21022230.360 8  21022240.440 6 110472567.332 8  86082520.554 6        51.000 8
        40.000 6
  22591847.630 7  22591859.990 5 118720973.108 7  92509850.910 5        45.000 7
        31.000 5
  20229226.086 9  20229235.066 8 106305300.796 9  82835299.046 8        54.000 9
        49.000 8
  22392773.412 7  22392783.012 5 117674816.807 7  91694662.584 5        45.000 7
        33.000 5
  22374161.112 7  22374169.732 6 117577012.375 7  91618451.910 6        47.000 7
        36.000 6
  23522241.864 5  23522271.404 2 123610160.940 5  96319592.638 2        34.000 5
        14.000 2
 13 10 21  5 28  6.0000000  0  7G01G04G13G17G20G23G28
  24699051.516 6  24699067.416 3 129794389.429 6 101138485.720 3        36.000 6
        22.000 3
  21021969.680 8  21021980.140 6 110471200.045 8  86081455.144 6        51.000 8
        41.000 6
  22591365.830 7  22591377.950 5 118718440.378 7  92507877.362 5        45.000 7
        32.000 5
  20229231.446 9  20229240.486 8 106305328.272 9  82835320.449 8        54.000 9
        49.000 8
  22393334.152 7  22393343.252 5 117677761.889 7  91696957.451 5        45.000 7
        32.000 5
  22374041.932 7  22374050.292 6 117576386.758 7  91617964.418 6        47.000 7
        36.000 6
  23522861.924 5  23522891.704 2 123613421.422 5  96322133.191 2        35.000 5
        16.000 2
 13 10 21  5 28  7.0000000  0  7G01G04G13G17G20G23G28
  24699524.876 6  24699540.196 3 129796877.320 6 101140424.338 3        36.000 6
        22.000 3
  21021709.400 8  21021719.420 6 110469831.253 8  86080388.548 6        51.000 8
        40.000 6
  22590883.610 7  22590895.970 5 118715906.243 7  92505902.717 5        45.000 7
        31.000 5
  20229236.286 9  20229245.326 8 106305354.566 9  82835340.944 8        54.000 9
        49.000 8
  22393894.472 7  22393903.352 5 117680705.436 7  91699251.123 5        45.000 7
        33.000 5
  22373923.192 7  22373931.272 6 117575759.945 7  91617475.992 6        47.000 7
        36.000 6
  23523482.164 5  23523511.764 2 123616680.306 5  96324672.517 2        35.000 5
        16.000 2
 13 10 21  5 28  8.0000000  0  7G01G04G13G17G20G23G28
  24699998.256 6  24700014.276 3 129799366.570 6 101142364.007 3        36.000 6
        22.000 3
  21021449.640 8  21021459.480 6 110468464.021 8  86079323.177 6        51.000 8
        41.000 6
  22590401.830 7  22590413.870 5 118713373.823 7  92503929.400 5        45.000 7
        31.000 5
  20229241.746 9  20229250.886 8 106305382.751 9  82835362.904 8        54.000 9
        49.000 8
  22394454.892 7  22394463.672 5 117683650.524 7  91701545.990 5        45.000 7
        33.000 5
  22373804.132 7  22373812.392 6 117575135.021 7  91616989.039 6        47.000 7
        36.000 6
  23524102.604 5  23524132.444 2 123619940.632 5  96327212.950 2        35.000 5
        15.000 2
 13 10 21  5 28  9.0000000  0  7G01G04G13G17G20G23G28
  24700471.776 6  24700488.476 3 129801858.952 6 101144306.127 3        36.000 6
        22.000 3
  21021189.900 8  21021200.060 6 110467100.121 8  86078260.396 6        51.000 8
        41.000 6
  22589920.510 7  22589932.510 5 118710844.829 7  92501958.762 5        45.000 7
        31.000 5
  20229247.626 9  20229256.846 8 106305414.584 9  82835387.713 8        54.000 9
        49.000 8
  22395015.972 7  22395025.052 5 117686598.911 7  91703843.437 5        45.000 7
        33.000 5
  22373685.692 7  22373694.472 6 117574513.774 7  91616504.958 6        47.000 7
        36.000 6
  23524724.104 5  23524753.604 2 123623204.098 5  96329755.869 2        35.000 5
        15.000 2
 13 10 21  5 28 10.0000000  0  7G01G04G13G17G20G23G28
  24700945.636 6  24700962.096 3 129804347.852 6 101146245.528 3        36.000 6
        22.000 3
  21020929.740 8  21020939.860 6 110465732.887 8  86077195.027 6        51.000 8
        41.000 6
  22589438.610 7  22589450.490 5 118708312.698 7  92499985.679 5        46.000 7
        31.000 5
  20229253.226 9  20229262.546 8 106305443.450 9  82835410.202 8        54.000 9
        49.000 8
  22395576.012 7  22395585.132 5 117689543.923 7  91706138.255 5        45.000 7
        34.000 5
  22373567.232 7  22373575.392 6 117573889.544 7  91616018.547 6        47.000 7
        36.000 6
  23525344.684 5  23525373.684 2 123626464.097 5  96332296.117 2        35.000 5
        14.000 2
 13 10 21  5 28 11.0000000  0  7G01G04G13G17G20G23G28
  24701419.656 6  24701435.876 3 129806838.442 6 101148186.239 3        36.000 6
        21.000 3
  21020669.660 8  21020680.000 6 110464367.553 8  86076131.132 6        52.000 8
        41.000 6
  22588957.150 7  22588968.890 5 118705782.559 7  92498014.146 5        45.000 7
        32.000 5
  20229258.986 9  20229268.126 8 106305474.538 9  82835434.429 8        54.000 9
        49.000 8
  22396136.712 7  22396145.512 5 117692490.836 7  91708434.547 5        45.000 7
        33.000 5
  22373448.772 7  22373457.512 6 117573267.561 7  91615533.885 6        47.000 7
        36.000 6
  23525964.704 5  23525994.284 2 123629725.863 5  96334837.753 2        35.000 5
        16.000 2
 13 10 21  5 28 12.0000000  0  7G01G04G13G17G20G23G28
  24701893.756 6  24701909.636 3 129809326.263 6 101150124.817 3        37.000 6
        22.000 3
  21020409.280 8  21020419.860 6 110462999.615 8  86075065.210 6        52.000 8
        41.000 6
  22588475.590 7  22588486.730 5 118703249.952 7  92496040.697 5        45.000 7
        31.000 5
  20229264.746 9  20229273.626 8 106305503.357 9  82835456.885 8        54.000 9
        49.000 8
  22396696.872 7  22396705.712 5 117695435.114 7  91710728.792 5        45.000 7
        33.000 5
  22373329.832 7  22373338.052 6 117572643.289 7  91615047.439 6        47.000 7
        36.000 6
  23526585.904 5  23526615.064 2 123632984.857 5  96337377.223 2        35.000 5
        16.000 2
 13 10 21  5 28 13.0000000  0  7G01G04G13G17G20G23G28
  24702367.616 6  24702383.096 3 129811817.657 6 101152066.163 3        36.000 6
        23.000 3
  21020150.040 8  21020160.180 6 110461635.494 8  86074002.259 6        52.000 8
        41.000 6
  22587994.230 7  22588005.930 5 118700721.297 7  92494070.329 5        45.000 7
        31.000 5
  20229270.826 9  20229280.206 8 106305536.322 9  82835482.568 8        54.000 9
        49.000 8
  22397257.832 7  22397266.732 5 117698383.168 7  91713025.983 5        45.000 7
        32.000 5
  22373211.852 7  22373220.392 6 117572023.194 7  91614564.253 6        47.000 7
        36.000 6
  23527206.904 5  23527235.404 2 123636247.541 5  96339919.509 2        34.000 5
        15.000 2
 13 10 21  5 28 14.0000000  0  7G01G04G13G17G20G23G28
  24702841.876 6  24702856.836 3 129814307.182 6 101154006.053 3        37.000 6
        22.000 3
  21019890.100 8  21019900.120 6 110460269.640 8  86072937.961 6        52.000 8
        41.000 6
  22587512.590 7  22587524.350 5 118698191.048 7  92492098.708 5        45.000 7
        31.000 5
  20229276.866 9  20229285.946 8 106305567.899 9  82835507.178 8        54.000 9
        49.000 8
  22397818.692 7  22397827.772 5 117701329.504 7  91715321.820 5        45.000 7
        33.000 5
  22373093.352 7  22373101.912 6 117571401.737 7  91614080.002 6        47.000 7
        36.000 6
  23527827.364 5  23527856.284 2 123639508.327 5  96342460.305 2        34.000 5
        15.000 2
 13 10 21  5 28 15.0000000  0  7G01G04G13G17G20G23G28
  24703316.036 6  24703330.496 3 129816797.538 6 101155946.594 3        37.000 6
        21.000 3
  21019630.400 8  21019640.380 6 110458904.781 8  86071874.434 6        52.000 8
        41.000 6
  22587031.330 7  22587042.950 5 118695661.931 7  92490127.965 5        45.000 7
        31.000 5
  20229283.066 9  20229292.486 8 106305600.801 9  82835532.815 8        54.000 9
        50.000 8
  22398379.592 7  22398388.852 5 117704276.782 7  91717618.397 5        45.000 7
        32.000 5
  22372975.512 7  22372983.672 6 117570781.569 7  91613596.754 6        47.000 7
        36.000 6
  23528447.584 5  23528476.564 2 123642769.988 5  96345001.825 2        35.000 5
        15.000 2
 13 10 21  5 28 16.0000000  0  7G01G04G13G17G20G23G28
  24703789.136 6  24703804.876 3 129819287.866 6 101157887.107 3        37.000 6
        22.000 3
  21019370.760 8  21019380.720 6 110457540.129 8  86070811.076 6        52.000 8
        41.000 6
  22586549.970 7  22586561.870 5 118693133.165 7  92488157.513 5        45.000 7
        31.000 5
  20229289.446 9  20229298.706 8 106305634.265 9  82835558.883 8        54.000 9
        49.000 8
  22398940.552 7  22398949.432 5 117707224.261 7  91719915.135 5        45.000 7
        33.000 5
  22372857.492 7  22372865.812 6 117570161.976 7  91613113.961 6        47.000 7
        37.000 6
  23529068.184 5  23529097.144 2 123646031.718 5  96347543.375 2        35.000 5
        14.000 2
 13 10 21  5 28 17.0000000  0  7G01G04G13G17G20G23G28
  24704263.716 6  24704278.436 3 129821778.999 6 101159828.258 3        37.000 6
        22.000 3
  21019110.920 8  21019121.340 6 110456176.461 8  86069748.475 6        51.000 8
        40.000 6
  22586068.770 7  22586080.790 5 118690605.493 7  92486187.907 5        45.000 7
        31.000 5
  20229296.126 9  20229305.506 8 106305669.012 9  82835585.964 8        54.000 9
        49.000 8
  22399501.512 7  22399510.332 5 117710172.683 7  91722212.605 5        45.000 7
        33.000 5
  22372740.012 7  22372748.432 6 117569543.695 7  91612632.186 6        47.000 7
        36.000 6
  23529689.024 5  23529718.024 2 123649294.236 5  96350085.551 2        35.000 5
        16.000 2
 13 10 21  5 28 18.0000000  0  7G01G04G13G17G20G23G28
  24704737.156 6  24704752.456 3 129824269.263 6 101161768.736 3        37.000 6
        22.000 3
  21018851.460 8  21018861.880 6 110454812.162 8  86068685.385 6        51.000 8
        41.000 6
  22585587.910 7  22585599.770 5 118688077.301 7  92484217.895 5        45.000 7
        31.000 5
  20229302.526 9  20229311.666 8 106305703.471 9  82835612.816 8        54.000 9
        49.000 8
  22400062.292 7  22400071.532 5 117713120.424 7  91724509.548 5        46.000 7
        33.000 5
  22372622.312 7  22372630.792 6 117568925.094 7  91612150.163 6        47.000 7
        36.000 6
  23530310.184 5  23530339.344 2 123652556.031 5  96352627.177 2        35.000 5
        15.000 2
 13 10 21  5 28 19.0000000  0  7G01G04G13G17G20G23G28
  24705211.556 6  24705226.136 3 129826757.988 6 101163707.992 3        37.000 6
        22.000 3
  21018591.600 8  21018601.740 6 110453446.494 8  86067621.234 6        51.000 8
        41.000 6
  22585106.510 7  22585118.210 5 118685547.897 7  92482246.941 5        45.000 7
        31.000 5
  20229308.946 9  20229317.866 8 106305736.891 9  82835638.853 8        54.000 9
        49.000 8
  22400623.132 7  22400632.092 5 117716066.807 7  91726805.433 5        45.000 7
        33.000 5
  22372504.092 8  22372512.632 6 117568305.488 8  91611667.359 6        48.000 8
        36.000 6
  23530929.904 5  23530959.084 2 123655816.286 5  96355167.591 2        35.000 5
        16.000 2
 13 10 21  5 28 20.0000000  0  7G01G04G13G17G20G23G28
  24705684.916 6  24705699.936 3 129829248.909 6 101165648.963 3        37.000 6
        21.000 3
  21018332.180 8  21018342.620 6 110452083.151 8  86066558.889 6        52.000 8
        41.000 6
  22584625.470 7  22584637.690 5 118683020.961 7  92480277.900 5        45.000 7
        32.000 5
  20229316.126 8  20229325.086 8 106305772.988 8  82835666.989 8        53.000 8
        49.000 8
  22401184.272 7  22401193.732 5 117719015.483 7  91729103.103 5        45.000 7
        32.000 5
  22372386.892 7  22372395.292 6 117567688.557 7  91611186.632 6        47.000 7
        36.000 6
  23531551.484 5  23531580.424 2 123659078.694 5  96357709.713 2        35.000 5
        15.000 2
 13 10 21  5 28 21.0000000  0  7G01G04G13G17G20G23G28
  24706159.056 6  24706174.036 3 129831741.603 6 101167591.331 3        37.000 6
        22.000 3
  21018073.000 8  21018083.400 6 110450721.773 8  86065498.080 6        51.000 8
        41.000 6
  22584144.650 7  22584157.150 5 118680496.101 7  92478310.482 5        45.000 7
        31.000 5
  20229323.146 8  20229332.466 8 106305811.386 8  82835696.906 8        53.000 8
        49.000 8
  22401745.332 7  22401754.852 5 117721966.102 7  91731402.282 5        45.000 7
        33.000 5
  22372269.852 7  22372278.272 5 117567073.913 7  91610707.688 5        47.000 7
        35.000 5
  23532172.744 5  23532201.924 2 123662343.001 5  96360253.316 2        34.000 5
        14.000 2
 13 10 21  5 28 22.0000000  0  7G01G04G13G17G20G23G28
  24706632.796 6  24706648.176 3 129834230.412 6 101169530.656 3        37.000 6
        21.000 3
  21017813.140 8  21017823.680 6 110449356.720 8  86064434.404 6        52.000 8
        41.000 6
  22583664.270 7  22583675.770 5 118677967.714 7  92476340.315 5        45.000 7
        31.000 5
  20229329.906 9  20229339.146 8 106305846.414 9  82835724.202 8        54.000 9
        49.000 8
  22402306.252 7  22402315.512 5 117724912.986 7  91733698.554 5        45.000 7
        33.000 5
  22372152.072 8  22372160.752 5 117566455.907 8  91610226.130 5        48.000 8
        35.000 5
  23532793.804 5  23532822.124 2 123665603.409 5  96362793.787 2        35.000 5
        14.000 2
 13 10 21  5 28 23.0000000  0  7G01G04G13G17G20G23G28
  24707106.836 6  24707122.036 3 129836718.106 6 101171469.109 3        36.000 6
        21.000 3
  21017553.480 8  21017563.420 6 110447990.755 8  86063370.020 6        52.000 8
        41.000 6
  22583183.370 7  22583194.430 5 118675438.557 7  92474369.558 5        45.000 7
        32.000 5
  20229336.506 9  20229345.366 8 106305880.868 9  82835751.048 8        54.000 9
        49.000 8
  22402866.812 7  22402876.732 5 117727858.946 7  91735994.101 5        45.000 7
        32.000 5
  22372034.752 7  22372043.212 6 117565837.353 7  91609744.143 6        47.000 7
        36.000 6
  23533413.504 5  23533442.744 2 123668862.742 5  96365333.456 2        34.000 5
        14.000 2
 13 10 21  5 28 24.0000000  0  7G01G04G13G17G20G23G28
  24707580.656 6  24707596.056 3 129839210.906 6 101173411.554 3        37.000 6
        21.000 3
  21017294.360 8  21017304.720 6 110446630.103 8  86062309.773 6        51.000 8
        41.000 6
  22582702.810 7  22582714.390 5 118672914.821 7  92472403.016 5        45.000 7
        31.000 5
  20229343.926 9  20229353.226 8 106305920.993 9  82835782.314 8        54.000 9
        49.000 8
  22403428.692 7  22403438.112 5 117730810.190 7  91738293.767 5        45.000 7
        32.000 5
  22371918.132 7  22371926.272 6 117565224.434 7  91609266.553 6        47.000 7
        36.000 6
  23534034.164 5  23534064.124 2 123672127.275 5  96367877.207 2        34.000 5
        16.000 2
 13 10 21  5 28 25.0000000  0  7G01G04G13G17G20G23G28
  24708054.096 6  24708069.536 3 129841699.882 6 101175351.000 3        37.000 6
        21.000 3
  21017034.740 8  21017044.980 6 110445265.796 8  86061246.677 6        51.000 8
        41.000 6
  22582221.650 7  22582233.010 5 118670387.572 7  92470433.742 5        45.000 7
        30.000 5
  20229350.986 9  20229360.106 8 106305957.768 9  82835810.969 8        54.000 9
        49.000 8
  22403989.512 7  22403999.012 5 117733757.744 7  91740590.567 5        45.000 7
        33.000 5
  22371800.892 7  22371808.432 5 117564608.205 7  91608786.372 5        47.000 7
        35.000 5
  23534654.844 5  23534684.264 2 123675388.035 5  96370418.010 2        34.000 5
        15.000 2
 13 10 21  5 28 26.0000000  0  7G01G04G13G17G20G23G28
  24708528.596 6  24708543.596 3 129844191.508 6 101177292.518 3        37.000 6
        21.000 3
  21016775.760 8  21016786.140 6 110443904.337 8  86060185.802 6        52.000 8
        41.000 6
  22581741.210 7  22581752.830 5 118667863.297 7  92468466.780 5        45.000 7
        31.000 5
  20229358.686 9  20229367.946 8 106305997.764 9  82835842.141 8        54.000 9
        49.000 8
  22404551.152 7  22404560.152 5 117736708.137 7  91742889.570 5        45.000 7
        32.000 5
  22371683.992 7  22371692.292 6 117563995.174 7  91608308.687 6        47.000 7
        36.000 6
  23535275.804 5  23535305.284 2 123678651.454 5  96372960.870 2        35.000 5
        14.000 2
 13 10 21  5 28 27.0000000  0  7G01G04G13G17G20G23G28
  24709002.156 6  24709017.116 3 129846681.033 6 101179232.429 3        37.000 6
        21.000 3
  21016516.300 8  21016526.420 6 110442540.905 8  86059123.387 6        51.000 8
        41.000 6
  22581260.610 7  22581272.050 5 118665337.197 7  92466498.396 5        45.000 7
        31.000 5
  20229365.866 9  20229374.946 8 106306036.099 9  82835872.009 8        54.000 9
        49.000 8
  22405111.792 7  22405121.232 5 117739656.550 7  91745187.031 5        44.000 7
        33.000 5
  22371567.212 7  22371575.372 5 117563380.498 7  91607829.721 5        47.000 7
        35.000 5
  23535897.484 5  23535925.904 2 123681912.764 5  96375502.179 2        34.000 5
        14.000 2
 13 10 21  5 28 28.0000000  0  7G01G04G13G17G20G23G28
  24709475.436 6  24709490.976 3 129849169.608 6 101181171.584 3        36.000 6
        21.000 3
  21016256.920 8  21016266.720 6 110441176.769 8  86058060.424 6        51.000 8
        41.000 6
  22580779.890 7  22580791.130 5 118662810.573 7  92464529.605 5        45.000 7
        32.000 5
  20229373.166 9  20229382.106 8 106306074.099 9  82835901.619 8        54.000 9
        49.000 8
  22405672.852 7  22405682.312 5 117742604.236 7  91747483.927 5        44.000 7
        33.000 5
  22371450.632 7  22371458.192 6 117562765.485 7  91607350.496 6        47.000 7
        36.000 6
  23536516.964 5  23536546.744 2 123685173.245 5  96378042.789 2        34.000 5
        15.000 2
 13 10 21  5 28 29.0000000  0  7G01G04G13G17G20G23G28
  24709949.336 6  24709964.876 3 129851662.174 6 101183113.833 3        36.000 6
        22.000 3
  21015997.860 8  21016008.180 6 110439816.779 8  86057000.695 6        52.000 8
        41.000 6
  22580299.870 7  22580311.710 5 118660288.177 7  92462564.108 5        45.000 7
        31.000 5
  20229381.466 9  20229390.446 8 106306116.554 9  82835934.699 8        54.000 9
        49.000 8
  22406234.852 7  22406244.372 5 117745556.014 7  91749784.011 5        45.000 7
        33.000 5
  22371334.012 8  22371342.132 6 117562154.931 8  91606874.740 6        48.000 8
        36.000 6
  23537138.784 5  23537168.144 2 123688437.744 5  96380586.514 2        35.000 5
        14.000 2
 13 10 21  5 28 30.0000000  0  7G01G04G13G17G20G23G28
  24710424.156 6  24710439.116 3 129854152.422 6 101185054.273 3        37.000 6
        22.000 3
  21015738.620 8  21015749.020 6 110438454.681 8  86055939.317 6        52.000 8
        41.000 6
  22579819.210 7  22579830.910 5 118657763.800 7  92460597.063 5        45.000 7
        31.000 5
  20229389.306 9  20229398.306 8 106306157.241 9  82835966.405 8        54.000 9
        49.000 8
  22406796.292 7  22406805.592 5 117748505.654 7  91752082.435 5        45.000 7
        33.000 5
  22371217.612 8  22371225.492 6 117561542.625 8  91606397.621 6        48.000 8
        36.000 6
  23537759.264 5  23537789.004 2 123691699.870 5  96383128.340 2        34.000 5
        14.000 2
 13 10 21  5 28 31.0000000  0  7G01G04G13G17G20G23G28
  24710898.616 6  24710913.356 3 129856645.261 6 101186996.741 3        36.000 6
        22.000 3
  21015479.860 8  21015490.280 6 110437095.356 8  86054880.113 6        52.000 8
        41.000 6
  22579339.550 7  22579351.450 5 118655242.355 7  92458632.315 5        45.000 7
        31.000 5
  20229397.266 8  20229406.286 8 106306201.058 8  82836000.548 8        53.000 8
        49.000 8
  22407357.852 7  22407367.592 5 117751458.044 7  91754382.996 5        45.000 7
        33.000 5
  22371101.572 8  22371110.012 6 117560933.443 8  91605922.935 6        48.000 8
        36.000 6
  23538380.244 5  23538409.964 2 123694964.740 5  96385672.376 2        34.000 5
        13.000 2
 13 10 21  5 28 32.0000000  0  6G01G04G13G17G20G23
  24711372.456 6  24711387.916 3 129859136.973 6 101188938.337 3        36.000 6
        21.000 3
  21015221.040 8  21015231.460 6 110435735.106 8  86053820.177 6        52.000 8
        41.000 6
  22578859.470 7  22578871.210 5 118652720.124 7  92456666.940 5        45.000 7
        31.000 5
  20229405.686 9  20229414.766 8 106306244.267 9  82836034.217 8        54.000 9
        49.000 8
  22407919.432 7  22407929.232 5 117754409.508 7  91756682.836 5        45.000 7
        33.000 5
  22370985.152 8  22370993.772 6 117560323.657 8  91605447.781 6        48.000 8
        36.000 6
 13 10 21  5 28 33.0000000  0  6G01G04G13G17G20G23
  24711846.196 6  24711861.076 3 129861626.977 6 101190878.612 3        36.000 6
        21.000 3
  21014962.220 8  21014972.640 6 110434373.321 8  86052759.046 6        52.000 8
        41.000 6
  22578379.510 7  22578391.070 5 118650196.483 7  92454700.477 5        45.000 7
        31.000 5
  20229413.586 9  20229422.866 8 106306286.273 9  82836066.954 8        54.000 9
        49.000 8
  22408480.732 7  22408490.372 5 117757359.388 7  91758981.440 5        45.000 7
        33.000 5
  22370869.152 7  22370877.332 6 117559712.719 7  91604971.728 6        47.000 7
        36.000 6
 13 10 21  5 28 34.0000000  0  6G01G04G13G17G20G23
  24712320.336 6  24712335.296 3 129864117.396 6 101192819.196 3        36.000 6
        21.000 3
  21014702.840 8  21014713.120 6 110433012.125 8  86051698.372 6        52.000 8
        40.000 6
  22577899.390 7  22577911.430 5 118647673.577 7  92452734.588 5        45.000 7
        31.000 5
  20229421.806 9  20229430.866 8 106306329.220 9  82836100.419 8        54.000 9
        49.000 8
  22409042.052 7  22409052.052 5 117760309.830 7  91761280.488 5        45.000 7
        33.000 5
  22370753.232 7  22370761.232 6 117559102.668 7  91604496.369 6        47.000 7
        36.000 6
 13 10 21  5 28 35.0000000  0  6G01G04G13G17G20G23
  24712793.856 6  24712808.656 3 129866605.479 6 101194757.961 3        36.000 6
        21.000 3
  21014443.780 8  21014453.940 6 110431648.772 8  86050636.029 6        52.000 8
        41.000 6
  22577419.250 7  22577430.790 5 118645148.643 7  92450767.107 5        45.000 7
        32.000 5
  20229429.646 9  20229438.626 8 106306370.351 9  82836132.465 8        54.000 9
        49.000 8
  22409604.052 7  22409613.432 5 117763258.115 7  91763577.853 5        45.000 7
        33.000 5
  22370636.752 7  22370644.852 6 117558490.816 7  91604019.604 6        47.000 7
        36.000 6
 13 10 21  5 28 36.0000000  0  6G01G04G13G17G20G23
  24713268.076 6  24713283.196 3 129869098.978 6 101196700.934 3        36.000 6
        21.000 3
  21014185.460 8  21014195.840 6 110430291.057 8  86049578.070 6        52.000 8
        41.000 6
  22576939.790 7  22576951.510 5 118642629.440 7  92448804.098 5        45.000 7
        31.000 5
  20229438.406 9  20229447.686 8 106306417.421 9  82836169.140 8        54.000 9
        49.000 8
  22410165.612 7  22410174.852 5 117766211.968 7  91765879.554 5        45.000 7
        34.000 5
  22370521.352 7  22370529.492 6 117557884.918 7  91603547.476 6        47.000 7
        36.000 6
 13 10 21  5 28 37.0000000  0  6G01G04G13G17G20G23
  24713742.256 6  24713756.956 3 129871587.721 6 101198640.212 3        36.000 6
        21.000 3
  21013926.260 8  21013936.360 6 110428928.774 8  86048516.552 6        52.000 8
        41.000 6
  22576459.770 7  22576471.170 5 118640105.864 7  92446837.685 5        45.000 7
        31.000 5
  20229446.706 9  20229455.786 8 106306460.286 9  82836202.544 8        54.000 9
        49.000 8
  22410726.712 7  22410736.512 5 117769161.257 7  91768177.699 5        45.000 7
        33.000 5
  22370405.432 7  22370413.172 6 117557274.811 7  91603072.064 6        47.000 7
        36.000 6
 13 10 21  5 28 38.0000000  0  6G01G04G13G17G20G23
  24714216.236 6  24714231.176 3 129874080.570 6 101200582.696 3        36.000 6
        21.000 3
  21013667.620 8  21013678.160 6 110427570.744 8  86047458.349 6        52.000 8
        41.000 6
  22575980.570 7  22575991.670 5 118637586.663 7  92444874.680 5        45.000 7
        32.000 5
  20229455.726 9  20229464.826 8 106306507.742 9  82836239.524 8        54.000 9
        49.000 8
  22411288.212 7  22411298.532 5 117772114.768 7  91770479.137 5        44.000 7
        33.000 5
  22370289.932 7  22370297.832 6 117556669.310 7  91602600.247 6        47.000 7
        36.000 6
 13 10 21  5 28 39.0000000  0  6G01G04G13G17G20G23
  24714690.736 6  24714704.896 3 129876570.020 6 101202522.529 3        36.000 6
        21.000 3
  21013408.660 8  21013418.860 6 110426209.579 8  86046397.707 6        51.000 8
        41.000 6
  22575499.950 7  22575511.670 5 118635064.422 7  92442909.303 5        46.000 7
        32.000 5
  20229464.086 9  20229472.966 8 106306552.373 9  82836274.304 8        54.000 9
        49.000 8
  22411850.012 7  22411859.712 5 117775065.085 7  91772778.086 5        44.000 7
        33.000 5
  22370174.532 7  22370182.372 6 117556060.966 7  91602126.210 6        47.000 7
        36.000 6
 13 10 21  5 28 40.0000000  0  6G01G04G13G17G20G23
  24715163.516 6  24715178.856 3 129879060.263 6 101204462.970 3        36.000 6
        21.000 3
  21013149.620 8  21013160.020 6 110424849.350 8  86045337.788 6        52.000 8
        41.000 6
  22575020.590 7  22575031.910 5 118632543.256 7  92440944.766 5        45.000 7
        32.000 5
  20229473.206 8  20229482.126 8 106306598.302 8  82836310.086 8        53.000 8
        49.000 8
  22412411.812 7  22412421.292 5 117778016.310 7  91775077.740 5        45.000 7
        32.000 5
  22370059.012 7  22370066.852 6 117555453.923 7  91601653.194 6        47.000 7
        36.000 6
 13 10 21  5 28 41.0000000  0  6G01G04G13G17G20G23
  24715637.496 6  24715653.176 3 129881552.272 6 101206404.791 3        36.000 6
        22.000 3
  21012891.300 8  21012901.580 6 110423491.065 8  86044279.385 6        52.000 8
        41.000 6
  22574540.870 7  22574552.630 5 118630024.191 7  92438981.859 5        45.000 7
        32.000 5
  20229482.206 9  20229491.026 8 106306646.490 9  82836347.640 8        54.000 9
        49.000 8
  22412973.692 7  22412983.112 5 117780969.466 7  91777378.903 5        44.000 7
        33.000 5
  22369943.712 7  22369951.612 6 117554849.166 7  91601181.958 6        47.000 7
        36.000 6
 13 10 21  5 28 42.0000000  0  6G01G04G13G17G20G23
  24716111.816 5  24716127.076 3 129884042.233 5 101208345.038 3        35.000 5
        21.000 3
  21012632.720 8  21012642.980 6 110422131.017 8  86043219.609 6        52.000 8
        41.000 6
  22574061.450 7  22574072.750 5 118627503.508 7  92437017.701 5        46.000 7
        32.000 5
  20229490.986 9  20229499.886 8 106306693.263 9  82836384.088 8        54.000 9
        49.000 8
  22413535.432 7  22413544.492 5 117783920.836 7  91779678.666 5        44.000 7
        33.000 5
  22369828.272 7  22369836.132 6 117554242.989 7  91600709.617 6        47.000 7
        36.000 6
 13 10 21  5 28 43.0000000  0  6G01G04G13G17G20G23
  24716585.796 5  24716601.296 3 129886533.351 5 101210286.150 3        35.000 5
        21.000 3
  21012374.080 8  21012384.440 7 110420772.202 8  86042160.792 7        52.000 8
        42.000 7
  22573582.010 7  22573593.410 5 118624984.173 7  92435054.589 5        46.000 7
        31.000 5
  20229500.166 9  20229509.246 8 106306741.577 9  82836421.736 8        54.000 9
        49.000 8
  22414097.192 7  22414106.252 5 117786873.380 7  91781979.343 5        44.000 7
        33.000 5
  22369713.672 7  22369721.212 5 117553638.369 7  91600238.484 5        47.000 7
        35.000 5
 13 10 21  5 28 44.0000000  0  6G01G04G13G17G20G23
  24717060.156 6  24717075.336 3 129889025.268 6 101212227.918 3        36.000 6
        21.000 3
  21012115.640 8  21012125.840 6 110419414.322 8  86041102.706 6        52.000 8
        41.000 6
  22573102.670 7  22573114.350 5 118622465.892 7  92433092.304 5        46.000 7
        32.000 5
  20229509.806 8  20229519.086 8 106306791.190 8  82836460.389 8        53.000 8
        49.000 8
  22414659.272 7  22414668.252 5 117789826.863 7  91784280.760 5        44.000 7
        32.000 5
  22369598.712 7  22369606.432 5 117553035.025 7  91599768.348 5        47.000 7
        35.000 5
 13 10 21  5 28 45.0000000  0  6G01G04G13G17G20G23
  24717533.376 6  24717549.256 3 129891516.021 6 101214168.768 3        36.000 6
        21.000 3
  21011857.160 8  21011867.280 6 110418055.580 8  86040043.943 6        52.000 8
        41.000 6
  22572623.430 7  22572634.910 5 118619946.930 7  92431129.483 5        46.000 7
        31.000 5
  20229518.946 8  20229527.906 8 106306840.270 8  82836498.635 8        53.000 8
        49.000 8
  22415220.872 7  22415230.052 5 117792779.460 7  91786581.483 5        44.000 7
        32.000 5
  22369483.332 7  22369491.212 5 117552431.193 7  91599297.828 5        47.000 7
        35.000 5
 13 10 21  5 28 46.0000000  0  6G01G04G13G17G20G23
  24718007.636 6  24718023.356 3 129894008.492 6 101216110.945 3        36.000 6
        22.000 3
  21011598.560 8  21011609.000 6 110416698.740 8  86038986.668 6        52.000 8
        41.000 6
  22572144.050 7  22572155.790 5 118617429.968 7  92429168.221 5        45.000 7
        31.000 5
  20229528.926 8  20229537.986 8 106306891.588 8  82836538.621 8        53.000 8
        49.000 8
  22415783.372 7  22415792.172 5 117795733.890 7  91788883.637 5        45.000 7
        32.000 5
  22369368.992 7  22369376.972 5 117551829.578 7  91598829.041 5        47.000 7
        35.000 5
 13 10 21  5 28 47.0000000  0  6G01G04G13G17G20G23
  24718482.296 6  24718497.476 3 129896499.009 6 101218051.614 3        36.000 6
        22.000 3
  21011340.220 8  21011350.760 6 110415340.098 8  86037927.992 6        52.000 8
        41.000 6
  22571664.630 7  22571676.890 5 118614911.382 7  92427205.693 5        46.000 7
        31.000 5
  20229538.366 8  20229547.126 8 106306941.453 8  82836577.477 8        53.000 8
        49.000 8
  22416345.052 7  22416353.972 5 117798686.556 7  91791184.415 5        45.000 7
        33.000 5
  22369254.352 7  22369262.072 5 117551226.505 7  91598359.116 5        47.000 7
        35.000 5
 13 10 21  5 28 48.0000000  0  6G01G04G13G17G20G23
  24718955.956 6  24718971.536 3 129898990.676 6 101219993.164 3        36.000 6
        22.000 3
  21011081.640 8  21011092.360 6 110413982.791 8  86036870.356 6        52.000 8
        41.000 6
  22571186.030 7  22571198.010 5 118612394.254 7  92425244.293 5        45.000 7
        31.000 5
  20229548.086 8  20229556.866 8 106306992.981 8  82836617.627 8        53.000 8
        49.000 8
  22416907.332 7  22416916.352 5 117801640.503 7  91793486.184 5        45.000 7
        33.000 5
  22369140.032 7  22369147.792 6 117550625.126 7  91597890.515 6        47.000 7
        36.000 6
 13 10 21  5 28 49.0000000  0  6G01G04G13G17G20G23
  24719430.796 6  24719446.116 3 129901483.426 6 101221935.554 3        36.000 6
        22.000 3
  21010823.680 8  21010834.440 6 110412626.815 8  86035813.752 6        51.000 8
        41.000 6
  22570706.810 7  22570718.870 5 118609878.571 7  92423284.026 5        45.000 7
        31.000 5
  20229558.146 8  20229567.546 8 106307046.151 8  82836659.062 8        53.000 8
        49.000 8
  22417469.772 7  22417479.032 5 117804595.717 7  91795788.946 5        44.000 7
        32.000 5
  22369026.232 7  22369033.572 5 117550025.398 7  91597423.193 5        47.000 7
        35.000 5
 13 10 21  5 28 50.0000000  0  6G01G04G13G17G20G23
  24719904.916 6  24719919.756 3 129903973.295 6 101223875.707 3        36.000 6
        22.000 3
  21010565.340 8  21010575.660 6 110411268.050 8  86034754.980 6        52.000 8
        41.000 6
  22570228.130 7  22570239.850 5 118607360.269 7  92421321.719 5        46.000 7
        32.000 5
  20229567.826 8  20229577.046 8 106307096.884 8  82836698.592 8        53.000 8
        49.000 8
  22418031.552 7  22418040.272 5 117807548.143 7  91798089.540 5        44.000 7
        32.000 5
  22368911.172 7  22368919.252 6 117549423.200 7  91596953.951 6        47.000 7
        36.000 6
 13 10 21  5 28 51.0000000  0  6G01G04G13G17G20G23
  24720378.836 6  24720394.076 3 129906465.396 6 101225817.595 3        36.000 6
        21.000 3
  21010307.080 8  21010317.360 6 110409911.749 8  86033698.120 6        52.000 8
        41.000 6
  22569749.410 7  22569761.230 5 118604844.547 7  92419361.416 5        45.000 7
        32.000 5
  20229577.886 8  20229587.446 8 106307150.435 8  82836740.318 8        52.000 8
        49.000 8
  22418594.052 7  22418602.552 5 117810502.997 7  91800392.017 5        44.000 7
        33.000 5
  22368797.212 7  22368805.152 6 117548823.837 7  91596486.915 6        47.000 7
        36.000 6
 13 10 21  5 28 52.0000000  0  6G01G04G13G17G20G23
  24720853.196 6  24720868.416 3 129908957.287 6 101227759.340 3        36.000 6
        22.000 3
  21010048.560 8  21010059.380 6 110408555.406 8  86032641.227 6        52.000 8
        41.000 6
  22569270.570 7  22569282.110 5 118602328.956 7  92417401.228 5        45.000 7
        32.000 5
  20229588.246 8  20229597.486 8 106307204.270 8  82836782.272 8        52.000 8
        49.000 8
  22419155.912 7  22419164.812 5 117813457.785 7  91802694.454 5        44.000 7
        33.000 5
  22368683.212 7  22368690.792 6 117548224.781 7  91596020.119 6        47.000 7
        36.000 6
 13 10 21  5 28 53.0000000  0  6G01G04G13G17G20G23
  24721326.776 6  24721342.436 3 129911448.599 6 101229700.608 3        37.000 6
        22.000 3
  21009790.960 8  21009801.240 6 110407198.718 8  86031584.074 6        52.000 8
        41.000 6
  22568791.710 7  22568803.850 5 118599813.124 7  92415440.843 5        45.000 7
        32.000 5
  20229598.326 8  20229607.606 8 106307258.082 8  82836824.203 8        53.000 8
        49.000 8
  22419718.452 7  22419727.332 5 117816412.182 7  91804996.579 5        45.000 7
        33.000 5
  22368569.012 8  22368577.052 6 117547625.707 8  91595553.306 6        48.000 8
        36.000 6
 13 10 21  5 28 54.0000000  0  6G01G04G13G17G20G23
  24721800.556 6  24721815.896 3 129913937.508 6 101231640.015 3        37.000 6
        21.000 3
  21009532.360 8  21009542.880 6 110405839.753 8  86030525.136 6        52.000 8
        41.000 6
  22568312.930 7  22568324.370 5 118597295.187 7  92413478.824 5        45.000 7
        31.000 5
  20229608.266 8  20229617.246 8 106307309.996 8  82836864.652 8        53.000 8
        49.000 8
  22420280.412 7  22420288.832 5 117819364.316 7  91807296.941 5        45.000 7
        33.000 5
  22368454.952 8  22368462.592 6 117547024.725 8  91595085.010 6        48.000 8
        36.000 6
 13 10 21  5 28 55.0000000  0  6G01G04G13G17G20G23
  24722275.256 6  24722290.176 3 129916429.424 6 101233581.752 3        37.000 6
        22.000 3
  21009274.500 8  21009284.880 6 110404484.083 8  86029468.776 6        51.000 8
        41.000 6
  22567834.270 7  22567845.850 5 118594780.636 7  92411519.437 5        45.000 7
        32.000 5
  20229618.886 8  20229628.046 8 106307365.487 8  82836907.895 8        53.000 8
        49.000 8
  22420842.952 7  22420851.652 5 117822319.654 7  91809599.802 5        44.000 7
        33.000 5
  22368340.912 7  22368348.592 6 117546427.325 7  91594619.512 6        47.000 7
        36.000 6
 13 10 21  5 28 56.0000000  0  6G01G04G13G17G20G23
  24722749.436 6  24722764.316 3 129918920.224 6 101235522.627 3        37.000 6
        22.000 3
  21009016.240 8  21009026.300 6 110403127.343 8  86028411.578 6        52.000 8
        41.000 6
  22567355.550 7  22567367.150 5 118592265.159 7  92409559.336 5        45.000 7
        32.000 5
  20229629.606 8  20229638.466 8 106307420.286 8  82836950.594 8        53.000 8
        49.000 8
  22421404.692 7  22421413.872 5 117825273.950 7  91811901.851 5        45.000 7
        33.000 5
  22368227.332 7  22368235.352 6 117545829.234 7  91594153.467 6        47.000 7
        36.000 6
 13 10 21  5 28 57.0000000  0  6G01G04G13G17G20G23
  24723222.876 6  24723239.216 3 129921412.877 6 101237464.952 3        36.000 6
        22.000 3
  21008758.340 8  21008768.880 7 110401772.752 8  86027356.053 7        52.000 8
        42.000 7
  22566877.290 7  22566889.430 5 118589751.967 7  92407601.009 5        45.000 7
        32.000 5
  20229640.426 8  20229649.086 8 106307477.537 8  82836995.207 8        53.000 8
        49.000 8
  22421967.392 7  22421976.172 5 117828230.323 7  91814205.516 5        45.000 7
        33.000 5
  22368113.692 7  22368121.892 6 117545233.589 7  91593689.334 6        47.000 7
        36.000 6
 13 10 21  5 28 58.0000000  0  6G01G04G13G17G20G23
  24723697.256 6  24723713.216 3 129923905.288 6 101239407.072 3        37.000 6
        22.000 3
  21008500.680 8  21008510.660 6 110400418.065 8  86026300.458 6        51.000 8
        41.000 6
  22566398.790 7  22566410.710 5 118587238.827 7  92405642.727 5        45.000 7
        32.000 5
  20229651.086 8  20229660.346 8 106307535.017 8  82837039.996 8        53.000 8
        49.000 8
  22422529.852 7  22422538.472 5 117831186.583 7  91816509.095 5        45.000 7
        33.000 5
  22368000.452 7  22368008.652 6 117544638.219 7  91593225.407 6        47.000 7
        36.000 6
 13 10 21  5 28 59.0000000  0  6G01G04G13G17G20G23
  24724171.796 6  24724187.456 3 129926396.684 6 101241348.432 3        37.000 6
        22.000 3
  21008242.460 8  21008253.040 6 110399062.557 8  86025244.221 6        52.000 8
        41.000 6
  22565920.690 7  22565932.450 5 118584724.987 7  92403683.896 5        45.000 7
        32.000 5
  20229662.086 8  20229671.206 8 106307592.029 8  82837084.425 8        53.000 8
        49.000 8
  22423092.512 7  22423100.592 5 117834141.973 7  91818811.996 5        46.000 7
        33.000 5
  22367887.152 7  22367895.052 6 117544042.340 7  91592761.096 6        47.000 7
        36.000 6
 13 10 21  5 29  0.0000000  0  6G01G04G13G17G20G23
  24724645.096 6  24724660.896 3 129928887.164 6 101243289.074 3        37.000 6
        22.000 3
  21007984.620 8  21007994.880 6 110397706.401 8  86024187.477 6        52.000 8
        41.000 6
  22565441.810 7  22565453.630 5 118582210.620 7  92401724.654 5        45.000 7
        32.000 5
  20229673.126 8  20229682.006 8 106307648.715 8  82837128.594 8        53.000 8
        49.000 8
  22423654.612 7  22423663.412 5 117837096.677 7  91821114.365 5        46.000 7
        33.000 5
  22367773.652 7  22367781.572 6 117543446.162 7  91592296.544 6        47.000 7
        36.000 6
 13 10 21  5 29  1.0000000  0  6G01G04G13G17G20G23
  24725120.196 6  24725135.296 3 129931379.275 6 101245230.974 3        37.000 6
        22.000 3
  21007726.900 8  21007737.220 6 110396351.973 8  86023132.079 6        51.000 8
        41.000 6
  22564963.490 7  22564975.730 5 118579698.127 7  92399766.873 5        45.000 7
        32.000 5
  20229684.066 8  20229692.986 8 106307707.469 8  82837174.379 8        53.000 8
        49.000 8
  22424217.372 7  22424225.972 5 117840053.097 7  91823418.065 5        45.000 7
        33.000 5
  22367660.892 7  22367668.592 6 117542852.038 7  91591833.590 6        47.000 7
        36.000 6
 13 10 21  5 29  2.0000000  0  6G01G04G13G17G20G23
  24725595.456 6  24725609.636 3 129933871.670 6 101247173.103 3        38.000 6
        23.000 3
  21007469.080 8  21007479.560 6 110394998.045 8  86022077.072 6        51.000 8
        41.000 6
  22564486.050 7  22564497.370 5 118577186.286 7  92397809.605 5        45.000 7
        32.000 5
  20229695.286 8  20229704.286 8 106307767.061 8  82837220.816 8        53.000 8
        49.000 8
  22424779.732 7  22424788.572 5 117843009.995 7  91825722.141 5        45.000 7
        33.000 5
  22367547.612 7  22367555.712 6 117542258.787 7  91591371.316 6        47.000 7
        36.000 6
 13 10 21  5 29  3.0000000  0  6G01G04G13G17G20G23
  24726068.896 6  24726083.856 3 129936364.055 6 101249115.216 3        37.000 6
        22.000 3
  21007211.380 8  21007221.720 6 110393644.308 8  86021022.219 6        52.000 8
        41.000 6
  22564007.950 7  22564020.090 5 118574674.755 7  92395852.575 5        45.000 7
        32.000 5
  20229706.646 8  20229715.706 8 106307827.178 8  82837267.659 8        53.000 8
        49.000 8
  22425342.432 7  22425351.172 5 117845967.064 7  91828026.349 5        45.000 7
        32.000 5
  22367435.172 7  22367443.012 6 117541666.058 7  91590909.454 6        47.000 7
        36.000 6
 13 10 21  5 29  4.0000000  0  6G01G04G13G17G20G23
  24726542.376 6  24726557.576 3 129938855.046 6 101251056.241 3        38.000 6
        22.000 3
  21006953.620 8  21006963.860 6 110392289.392 8  86019966.442 6        52.000 8
        41.000 6
  22563529.830 7  22563541.770 5 118572162.199 7  92393894.750 5        45.000 7
        31.000 5
  20229718.186 8  20229726.926 8 106307886.442 8  82837313.834 8        53.000 8
        49.000 8
  22425904.932 7  22425913.712 5 117848922.882 7  91830329.576 5        45.000 7
        33.000 5
  22367321.872 7  22367330.172 6 117541072.481 7  91590446.930 6        47.000 7
        36.000 6
 13 10 21  5 29  5.0000000  0  6G01G04G13G17G20G23
  24727017.136 6  24727031.296 3 129941346.679 6 101252997.773 3        37.000 6
        21.000 3
  21006696.000 8  21006706.340 6 110390935.238 8  86018911.257 6        51.000 8
        41.000 6
  22563052.130 7  22563063.790 5 118569650.515 7  92391937.598 5        45.000 7
        31.000 5
  20229729.746 8  20229738.986 8 106307946.794 8  82837360.866 8        53.000 8
        49.000 8
  22426467.492 7  22426476.312 5 117851879.462 7  91832633.410 5        45.000 7
        32.000 5
  22367209.592 7  22367217.412 6 117540479.999 7  91589985.254 6        47.000 7
        36.000 6
 13 10 21  5 29  6.0000000  0  6G01G04G13G17G20G23
  24727490.476 6  24727506.176 3 129943839.214 6 101254940.014 3        37.000 6
        22.000 3
  21006438.380 8  21006449.180 6 110389582.255 8  86017856.984 6        52.000 8
        41.000 6
  22562574.250 7  22562585.890 5 118567140.174 7  92389981.492 5        46.000 7
        32.000 5
  20229741.426 8  20229750.366 8 106308008.682 8  82837409.094 8        53.000 8
        49.000 8
  22427030.712 7  22427039.392 5 117854837.172 7  91834938.120 5        45.000 7
        32.000 5
  22367096.792 7  22367104.732 6 117539889.041 7  91589524.770 6        47.000 7
        36.000 6
 13 10 21  5 29  7.0000000  0  6G01G04G13G17G20G23
  24727965.176 6  24727980.336 3 129946331.504 6 101256882.054 3        38.000 6
        22.000 3
  21006181.240 8  21006191.520 6 110388229.141 8  86016802.610 6        51.000 8
        41.000 6
  22562096.170 7  22562108.370 5 118564629.820 7  92388025.382 5        45.000 7
        32.000 5
  20229753.126 8  20229761.966 8 106308070.776 8  82837457.477 8        53.000 8
        49.000 8
  22427593.052 7  22427602.332 5 117857794.722 7  91837242.706 5        45.000 7
        33.000 5
  22366984.452 7  22366992.092 5 117539298.307 7  91589064.459 5        47.000 7
        35.000 5
 13 10 21  5 29  8.0000000  0  6G01G04G13G17G20G23
  24728438.956 6  24728454.776 3 129948821.873 6 101258822.599 3        37.000 6
        22.000 3
  21005923.020 8  21005933.340 6 110386874.335 8  86015746.923 6        51.000 8
        40.000 6
  22561618.870 7  22561629.930 5 118562117.948 7  92386068.079 5        45.000 7
        32.000 5
  20229764.826 8  20229773.886 8 106308131.519 8  82837504.807 8        53.000 8
        49.000 8
  22428156.032 7  22428164.692 5 117860750.579 7  91839545.971 5        44.000 7
        33.000 5
  22366871.912 7  22366879.652 6 117538706.212 7  91588603.084 6        47.000 7
        36.000 6
 13 10 21  5 29  9.0000000  0  6G01G04G13G17G20G23
  24728913.076 6  24728928.156 3 129951312.754 6 101260763.533 3        37.000 6
        22.000 3
  21005665.600 8  21005675.880 6 110385520.197 8  86014691.754 6        51.000 8
        41.000 6
  22561140.970 7  22561152.410 5 118559606.866 7  92384111.404 5        45.000 7
        32.000 5
  20229776.606 8  20229785.686 8 106308193.260 8  82837552.915 8        53.000 8
        49.000 8
  22428718.652 7  22428727.152 5 117863707.057 7  91841849.714 5        44.000 7
        33.000 5
  22366759.772 7  22366767.232 6 117538115.125 7  91588142.504 6        47.000 7
        36.000 6
 13 10 21  5 29 10.0000000  0  6G01G04G13G17G20G23
  24729387.396 6  24729402.836 3 129953806.203 6 101262706.462 3        37.000 6
        22.000 3
  21005408.740 8  21005418.760 6 110384168.851 8  86013638.754 6        52.000 8
        41.000 6
  22560663.790 7  22560675.310 5 118557098.700 7  92382156.996 5        45.000 7
        32.000 5
  20229788.566 8  20229797.666 8 106308258.120 8  82837603.464 8        53.000 8
        49.000 8
  22429281.252 7  22429290.112 5 117866666.304 7  91844155.619 5        45.000 7
        33.000 5
  22366647.552 7  22366655.252 6 117537527.179 7  91587684.362 6        47.000 7
        36.000 6
 13 10 21  5 29 11.0000000  0  6G01G04G13G17G20G23
  24729862.456 6  24729877.616 3 129956300.540 6 101264650.107 3        37.000 6
        21.000 3
  21005151.540 8  21005162.080 6 110382818.546 8  86012586.570 6        52.000 8
        41.000 6
  22560186.330 7  22560198.050 5 118554591.744 7  92380203.531 5        45.000 7
        32.000 5
  20229801.486 9  20229810.566 8 106308324.360 9  82837655.069 8        54.000 9
        49.000 8
  22429844.432 7  22429853.512 5 117869626.563 7  91846462.310 5        45.000 7
        33.000 5
  22366535.692 7  22366544.012 6 117536940.620 7  91587227.311 6        47.000 7
        36.000 6
 13 10 21  5 29 12.0000000  0  6G01G04G13G17G20G23
  24730336.916 6  24730351.996 3 129958793.040 6 101266592.313 3        38.000 6
        21.000 3
  21004894.100 8  21004904.820 6 110381466.633 8  86011533.133 6        52.000 8
        41.000 6
  22559708.710 7  22559720.590 5 118552083.300 7  92378248.910 5        45.000 7
        32.000 5
  20229813.866 9  20229822.906 8 106308389.333 9  82837705.702 8        54.000 9
        49.000 8
  22430407.532 7  22430416.372 5 117872585.192 7  91848767.734 5        45.000 7
        33.000 5
  22366423.692 7  22366432.032 6 117536352.778 7  91586769.254 6        47.000 7
        36.000 6
 13 10 21  5 29 13.0000000  0  6G01G04G13G17G20G23
  24730810.996 6  24730825.836 3 129961284.547 6 101268533.761 3        38.000 6
        21.000 3
  21004636.640 8  21004647.240 6 110380113.913 8  86010479.070 6        52.000 8
        41.000 6
  22559231.710 7  22559243.710 5 118549574.167 7  92376293.752 5        45.000 7
        32.000 5
  20229826.086 9  20229835.206 8 106308453.839 9  82837755.968 8        54.000 9
        49.000 8
  22430970.552 7  22430979.552 5 117875542.955 7  91851072.480 5        45.000 7
        33.000 5
  22366312.012 7  22366319.832 6 117535764.474 7  91586310.838 6        47.000 7
        36.000 6
 13 10 21  5 29 14.0000000  0  6G01G04G13G17G20G23
  24731284.616 6  24731299.496 3 129963775.759 6 101270474.974 3        38.000 6
        22.000 3
  21004379.040 8  21004389.680 6 110378761.047 8  86009424.894 6        52.000 8
        41.000 6
  22558753.990 7  22558765.770 5 118547065.059 7  92374338.606 5        45.000 7
        31.000 5
  20229838.446 8  20229847.486 8 106308518.528 8  82837806.373 8        53.000 8
        49.000 8
  22431533.392 7  22431542.292 5 117878500.557 7  91853377.101 5        45.000 7
        33.000 5
  22366200.212 7  22366207.752 6 117535176.357 7  91585852.569 6        47.000 7
        36.000 6
 13 10 21  5 29 15.0000000  0  7G01G04G12G13G17G20G23
  24731758.396 6  24731773.096 3 129966265.438 6 101272414.995 3        38.000 6
        22.000 3
  21004121.600 8  21004131.960 6 110377406.882 8  86008369.703 6        51.000 8
        41.000 6
  24669004.876 5  24669018.736 2 129636495.416 5 101015451.387 2        35.000 5
        16.000 2
  22558276.350 7  22558288.090 5 118544554.757 7  92372382.527 5        45.000 7
        32.000 5
  20229850.766 9  20229859.386 8 106308582.274 9  82837856.045 8        54.000 9
        49.000 8
  22432096.292 7  22432104.592 5 117881456.830 7  91855680.696 5        45.000 7
        33.000 5
  22366088.152 7  22366096.052 6 117534587.318 7  91585393.575 6        47.000 7
        36.000 6
 13 10 21  5 29 16.0000000  0  7G01G04G12G13G17G20G23
  24732233.776 6  24732248.376 3 129968760.239 6 101274358.997 3        37.000 6
        22.000 3
  21003865.200 8  21003875.660 6 110376058.017 8  86007318.648 6        51.000 8
        41.000 6
  24668641.556 5  24668655.376 2 129634586.315 5 101013963.778 2        35.000 5
        16.000 2
  22557799.630 7  22557811.570 5 118542049.921 7  92370430.709 5        46.000 7
        32.000 5
  20229863.806 9  20229872.946 8 106308651.633 9  82837910.093 8        54.000 9
        49.000 8
  22432659.672 7  22432668.172 5 117884418.347 7  91857988.374 5        46.000 7
        33.000 5
  22365977.052 7  22365985.072 6 117534003.883 7  91584938.954 6        47.000 7
        36.000 6
 13 10 21  5 29 17.0000000  0  7G01G04G12G13G17G20G23
  24732706.916 6  24732722.576 3 129971251.796 6 101276300.449 3        37.000 6
        22.000 3
  21003607.520 8  21003618.220 6 110374706.062 8  86006265.172 6        51.000 8
        41.000 6
  24668277.896 5  24668291.656 2 129632674.467 5 101012474.030 2        35.000 5
        16.000 2
  22557322.970 7  22557334.470 5 118539542.142 7  92368476.609 5        45.000 7
        31.000 5
  20229876.446 9  20229885.426 8 106308718.272 9  82837962.018 8        54.000 9
        49.000 8
  22433222.632 7  22433231.072 5 117887376.782 7  91860293.644 5        46.000 7
        33.000 5
  22365865.452 7  22365873.132 6 117533417.725 7  91584482.213 6        47.000 7
        36.000 6
 13 10 21  5 29 18.0000000  0  7G01G04G12G13G17G20G23
  24733181.636 6  24733197.096 3 129973745.668 6 101278243.724 3        38.000 6
        21.000 3
  21003350.680 8  21003361.060 6 110373356.603 8  86005213.646 6        51.000 8
        41.000 6
  24667914.916 6  24667928.196 2 129630765.376 6 101010986.453 2        36.000 6
        16.000 2
  22556845.330 7  22556857.430 5 118537036.985 7  92366524.551 5        46.000 7
        31.000 5
  20229889.706 8  20229898.926 8 106308787.723 8  82838016.137 8        53.000 8
        49.000 8
  22433786.052 7  22433794.712 5 117890337.669 7  91862600.820 5        45.000 7
        33.000 5
  22365754.412 7  22365762.252 6 117532834.398 7  91584027.676 6        47.000 7
        36.000 6
 13 10 21  5 29 19.0000000  0  7G01G04G12G13G17G20G23
  24733656.696 6  24733671.096 3 129976237.106 6 101280185.090 3        38.000 6
        21.000 3
  21003093.360 8  21003104.040 6 110372004.939 8  86004160.407 6        51.000 8
        41.000 6
  24667551.216 6  24667564.296 2 129628854.403 6 101009497.396 2        36.000 6
        16.000 2
  22556368.810 7  22556380.650 5 118534529.734 7  92364570.856 5        45.000 7
        32.000 5
  20229902.466 8  20229911.226 8 106308855.297 8  82838068.793 8        53.000 8
        49.000 8
  22434349.072 7  22434357.792 5 117893296.296 7  91864906.246 5        45.000 7
        33.000 5
  22365643.252 7  22365651.292 5 117532249.208 7  91583571.688 5        47.000 7
        35.000 5
 13 10 21  5 29 20.0000000  0  7G01G04G12G13G17G20G23
  24734130.176 6  24734145.696 3 129978730.468 6 101282127.969 3        38.000 6
        22.000 3
  21002836.580 8  21002847.500 6 110370655.341 8  86003108.770 6        51.000 8
        41.000 6
  24667188.416 6  24667200.996 2 129626945.714 6 101008010.132 2        36.000 6
        16.000 2
  22555892.130 7  22555903.630 5 118532024.708 7  92362618.894 5        46.000 7
        32.000 5
  20229915.806 8  20229924.766 8 106308925.289 8  82838123.332 8        53.000 8
        49.000 8
  22434911.972 7  22434921.232 5 117896256.975 7  91867213.268 5        45.000 7
        33.000 5
  22365532.272 7  22365540.012 6 117531666.448 7  91583117.589 6        47.000 7
        36.000 6
 13 10 21  5 29 21.0000000  0  7G01G04G12G13G17G20G23
  24734604.696 6  24734619.816 3 129981222.577 6 101284069.891 3        37.000 6
        22.000 3
  21002579.540 8  21002589.920 6 110369304.736 8  86002056.357 6        51.000 8
        41.000 6
  24666824.896 5  24666838.036 2 129625036.420 5 101006522.361 2        35.000 5
        15.000 2
  22555415.390 7  22555427.170 5 118529518.837 7  92360666.277 5        46.000 7
        32.000 5
  20229928.846 8  20229938.146 8 106308994.629 8  82838177.363 8        53.000 8
        49.000 8
  22435475.792 7  22435484.252 5 117899216.635 7  91869519.499 5        45.000 7
        33.000 5
  22365421.012 7  22365429.132 6 117531083.005 7  91582662.954 6        47.000 7
        36.000 6
 13 10 21  5 29 22.0000000  0  7G01G04G12G13G17G20G23
  24735079.076 6  24735093.996 3 129983714.743 6 101286011.847 3        37.000 6
        21.000 3
  21002322.480 8  21002333.400 6 110367954.347 8  86001004.104 6        51.000 8
        41.000 6
  24666461.556 5  24666474.436 2 129623127.626 5 101005034.950 2        35.000 5
        16.000 2
  22554938.410 7  22554950.330 5 118527013.294 7  92358713.914 5        45.000 7
        32.000 5
  20229942.206 8  20229951.186 8 106309064.513 8  82838231.820 8        53.000 8
        49.000 8
  22436039.012 7  22436047.292 5 117902176.439 7  91871825.842 5        45.000 7
        33.000 5
  22365310.432 7  22365318.112 5 117530500.098 7  91582208.753 5        47.000 7
        35.000 5
